{
  "city": "Berlin",
  "country": "DE",
  "source": "overpass",
  "last_updated": 1770754119,
  "neighborhoods": [
    {
      "id": "node/21484050",
      "name": "Karlshorst",
      "name_local": "Karlshorst",
      "slug": "karlshorst",
      "center": {
        "lat": 52.4843399,
        "lon": 13.5235848
      },
      "bbox": null,
      "source": "osm",
      "tags": {
        "name": "Karlshorst",
        "name:prefix": "Ortsteil",
        "note": "siehe Relation für Details",
        "place": "suburb",
        "population": "24292",
        "postal_code": "10318"
      }
    },
    {
      "id": "node/21484076",
      "name": "Schmöckwitz",
      "name_local": "Schmöckwitz",
      "slug": "schm_ckwitz",
      "center": {
        "lat": 52.3756651,
        "lon": 13.6488551
      },
      "bbox": null,
      "source": "osm",
      "tags": {
        "name": "Schmöckwitz",
        "name:prefix": "Ortsteil",
        "note": "siehe Relation für Details",
        "place": "suburb",
        "postal_code": "12527",
        "wikidata": "Q563573",
        "wikipedia": "de:Berlin-Schmöckwitz"
      }
    },
    {
      "id": "node/21484102",
      "name": "Adlershof",
      "name_local": "Adlershof",
      "slug": "adlershof",
      "center": {
        "lat": 52.4378932,
        "lon": 13.5475496
      },
      "bbox": null,
      "source": "osm",
      "tags": {
        "name": "Adlershof",
        "name:de": "Adlershof",
        "name:prefix": "Ortsteil",
        "name:ru": "Адлерсхоф",
        "note": "siehe Relation für Details",
        "place": "suburb"
      }
    },
    {
      "id": "node/27380127",
      "name": "Bohnsdorf",
      "name_local": "Bohnsdorf",
      "slug": "bohnsdorf",
      "center": {
        "lat": 52.4022426,
        "lon": 13.5706649
      },
      "bbox": null,
      "source": "osm",
      "tags": {
        "name": "Bohnsdorf",
        "name:prefix": "Ortsteil",
        "note": "siehe Relation für Details",
        "place": "suburb"
      }
    },
    {
      "id": "node/28094136",
      "name": "Schöneberg",
      "name_local": "Schöneberg",
      "slug": "sch_neberg",
      "center": {
        "lat": 52.482157,
        "lon": 13.3551901
      },
      "bbox": null,
      "source": "osm",
      "tags": {
        "name": "Schöneberg",
        "name:prefix": "Ortsteil",
        "place": "suburb"
      }
    },
    {
      "id": "node/28795490",
      "name": "Niederschöneweide",
      "name_local": "Niederschöneweide",
      "slug": "niedersch_neweide",
      "center": {
        "lat": 52.4548197,
        "lon": 13.5178766
      },
      "bbox": null,
      "source": "osm",
      "tags": {
        "name": "Niederschöneweide",
        "name:prefix": "Ortsteil",
        "note": "siehe Relation für Details",
        "place": "suburb"
      }
    },
    {
      "id": "node/28795831",
      "name": "Oberschöneweide",
      "name_local": "Oberschöneweide",
      "slug": "obersch_neweide",
      "center": {
        "lat": 52.4624563,
        "lon": 13.5234762
      },
      "bbox": null,
      "source": "osm",
      "tags": {
        "name": "Oberschöneweide",
        "name:prefix": "Ortsteil",
        "note": "siehe Relation für Details",
        "place": "suburb"
      }
    },
    {
      "id": "node/28891708",
      "name": "Wilmersdorf",
      "name_local": "Wilmersdorf",
      "slug": "wilmersdorf",
      "center": {
        "lat": 52.4871152,
        "lon": 13.3203298
      },
      "bbox": null,
      "source": "osm",
      "tags": {
        "name": "Wilmersdorf",
        "name:prefix": "Ortsteil",
        "note": "siehe Relation für Details",
        "place": "suburb"
      }
    },
    {
      "id": "node/29334080",
      "name": "Schmargendorf",
      "name_local": "Schmargendorf",
      "slug": "schmargendorf",
      "center": {
        "lat": 52.4789022,
        "lon": 13.2929962
      },
      "bbox": null,
      "source": "osm",
      "tags": {
        "name": "Schmargendorf",
        "name:prefix": "Ortsteil",
        "note": "siehe Relation für Details",
        "place": "suburb"
      }
    },
    {
      "id": "node/29336704",
      "name": "Charlottenburg",
      "name_local": "Charlottenburg",
      "slug": "charlottenburg",
      "center": {
        "lat": 52.515747,
        "lon": 13.3096834
      },
      "bbox": null,
      "source": "osm",
      "tags": {
        "name": "Charlottenburg",
        "name:prefix": "Ortsteil",
        "place": "suburb"
      }
    },
    {
      "id": "node/29336705",
      "name": "Westend",
      "name_local": "Westend",
      "slug": "westend",
      "center": {
        "lat": 52.5133213,
        "lon": 13.2556663
      },
      "bbox": null,
      "source": "osm",
      "tags": {
        "name": "Westend",
        "name:prefix": "Ortsteil",
        "note": "siehe Relation für Details",
        "place": "suburb"
      }
    },
    {
      "id": "node/29336992",
      "name": "Halensee",
      "name_local": "Halensee",
      "slug": "halensee",
      "center": {
        "lat": 52.4972262,
        "lon": 13.2929986
      },
      "bbox": null,
      "source": "osm",
      "tags": {
        "name": "Halensee",
        "name:prefix": "Ortsteil",
        "note": "siehe Relation für Details",
        "place": "suburb"
      }
    },
    {
      "id": "node/29337165",
      "name": "Grunewald",
      "name_local": "Grunewald",
      "slug": "grunewald",
      "center": {
        "lat": 52.4873475,
        "lon": 13.2637538
      },
      "bbox": null,
      "source": "osm",
      "tags": {
        "name": "Grunewald",
        "name:prefix": "Ortsteil",
        "note": "siehe Relation für Details",
        "place": "suburb"
      }
    },
    {
      "id": "node/29421338",
      "name": "Wartenberg",
      "name_local": "Wartenberg",
      "slug": "wartenberg",
      "center": {
        "lat": 52.5753945,
        "lon": 13.5175821
      },
      "bbox": null,
      "source": "osm",
      "tags": {
        "name": "Wartenberg",
        "name:prefix": "Ortsteil",
        "note": "siehe Relation für Details",
        "place": "suburb"
      }
    },
    {
      "id": "node/29621202",
      "name": "Mahlsdorf",
      "name_local": "Mahlsdorf",
      "slug": "mahlsdorf",
      "center": {
        "lat": 52.5086995,
        "lon": 13.6131624
      },
      "bbox": null,
      "source": "osm",
      "tags": {
        "is_in:city": "Berlin",
        "is_in:country": "Deutschland",
        "is_in:country_code": "DE",
        "is_in:state": "Berlin",
        "name": "Mahlsdorf",
        "name:prefix": "Ortsteil",
        "note": "siehe Relation für Details",
        "place": "suburb",
        "population": "27105"
      }
    },
    {
      "id": "node/29768691",
      "name": "Blankenburg",
      "name_local": "Blankenburg",
      "slug": "blankenburg",
      "center": {
        "lat": 52.5938917,
        "lon": 13.4533829
      },
      "bbox": null,
      "source": "osm",
      "tags": {
        "name": "Blankenburg",
        "name:prefix": "Ortsteil",
        "note": "siehe Relation für Details",
        "place": "suburb"
      }
    },
    {
      "id": "node/29885013",
      "name": "Biesdorf-Nord",
      "name_local": "Biesdorf-Nord",
      "slug": "biesdorf_nord",
      "center": {
        "lat": 52.5236213,
        "lon": 13.5554059
      },
      "bbox": null,
      "source": "osm",
      "tags": {
        "name": "Biesdorf-Nord",
        "place": "quarter"
      }
    },
    {
      "id": "node/30822888",
      "name": "Blankenfelde",
      "name_local": "Blankenfelde",
      "slug": "blankenfelde",
      "center": {
        "lat": 52.6186272,
        "lon": 13.3884468
      },
      "bbox": null,
      "source": "osm",
      "tags": {
        "name": "Blankenfelde",
        "name:prefix": "Ortsteil",
        "note": "siehe Relation für Details",
        "place": "suburb"
      }
    },
    {
      "id": "node/31222216",
      "name": "Friedrichshagen",
      "name_local": "Friedrichshagen",
      "slug": "friedrichshagen",
      "center": {
        "lat": 52.4493804,
        "lon": 13.6262724
      },
      "bbox": null,
      "source": "osm",
      "tags": {
        "name": "Friedrichshagen",
        "name:prefix": "Ortsteil",
        "note": "siehe Relation für Details",
        "place": "suburb"
      }
    },
    {
      "id": "node/31451386",
      "name": "Zehlendorf",
      "name_local": "Zehlendorf",
      "slug": "zehlendorf",
      "center": {
        "lat": 52.4343217,
        "lon": 13.2589298
      },
      "bbox": null,
      "source": "osm",
      "tags": {
        "name": "Zehlendorf",
        "name:prefix": "Ortsteil",
        "place": "suburb"
      }
    },
    {
      "id": "node/31901450",
      "name": "Gatow",
      "name_local": "Gatow",
      "slug": "gatow",
      "center": {
        "lat": 52.4856409,
        "lon": 13.1801341
      },
      "bbox": null,
      "source": "osm",
      "tags": {
        "name": "Gatow",
        "name:prefix": "Ortsteil",
        "note": "siehe Relation für Details",
        "place": "suburb"
      }
    },
    {
      "id": "node/31901451",
      "name": "Dahlem",
      "name_local": "Dahlem",
      "slug": "dahlem",
      "center": {
        "lat": 52.4573805,
        "lon": 13.2810976
      },
      "bbox": null,
      "source": "osm",
      "tags": {
        "name": "Dahlem",
        "name:prefix": "Ortsteil",
        "note": "siehe Relation für Details",
        "place": "suburb"
      }
    },
    {
      "id": "node/31901452",
      "name": "Friedenau",
      "name_local": "Friedenau",
      "slug": "friedenau",
      "center": {
        "lat": 52.472075,
        "lon": 13.3296424
      },
      "bbox": null,
      "source": "osm",
      "tags": {
        "name": "Friedenau",
        "name:prefix": "Ortsteil",
        "note": "siehe Relation für Details",
        "place": "suburb"
      }
    },
    {
      "id": "node/31901454",
      "name": "Steglitz",
      "name_local": "Steglitz",
      "slug": "steglitz",
      "center": {
        "lat": 52.4572569,
        "lon": 13.3222865
      },
      "bbox": null,
      "source": "osm",
      "tags": {
        "name": "Steglitz",
        "name:prefix": "Ortsteil",
        "note": "siehe Relation für Details",
        "place": "suburb"
      }
    },
    {
      "id": "node/31928978",
      "name": "Kladow",
      "name_local": "Kladow",
      "slug": "kladow",
      "center": {
        "lat": 52.4602925,
        "lon": 13.1400517
      },
      "bbox": null,
      "source": "osm",
      "tags": {
        "name": "Kladow",
        "name:prefix": "Ortsteil",
        "place": "suburb"
      }
    },
    {
      "id": "node/33784937",
      "name": "Tegelort",
      "name_local": "Tegelort",
      "slug": "tegelort",
      "center": {
        "lat": 52.5722155,
        "lon": 13.2295251
      },
      "bbox": null,
      "source": "osm",
      "tags": {
        "name": "Tegelort",
        "place": "quarter"
      }
    },
    {
      "id": "node/33790061",
      "name": "Tegel",
      "name_local": "Tegel",
      "slug": "tegel",
      "center": {
        "lat": 52.5873891,
        "lon": 13.2790461
      },
      "bbox": null,
      "source": "osm",
      "tags": {
        "name": "Tegel",
        "name:prefix": "Ortsteil",
        "note": "siehe Relation für Details",
        "place": "suburb"
      }
    },
    {
      "id": "node/35115775",
      "name": "Buckow",
      "name_local": "Buckow",
      "slug": "buckow",
      "center": {
        "lat": 52.4186619,
        "lon": 13.4289504
      },
      "bbox": null,
      "source": "osm",
      "tags": {
        "name": "Buckow",
        "name:prefix": "Ortsteil",
        "note": "siehe Relation für Details",
        "place": "suburb"
      }
    },
    {
      "id": "node/59979916",
      "name": "Staaken",
      "name_local": "Staaken",
      "slug": "staaken",
      "center": {
        "lat": 52.5322705,
        "lon": 13.1433666
      },
      "bbox": null,
      "source": "osm",
      "tags": {
        "name": "Staaken",
        "name:prefix": "Ortsteil",
        "note": "siehe Relation für Details",
        "place": "suburb"
      }
    },
    {
      "id": "node/61885789",
      "name": "Heiligensee",
      "name_local": "Heiligensee",
      "slug": "heiligensee",
      "center": {
        "lat": 52.6122549,
        "lon": 13.2295789
      },
      "bbox": null,
      "source": "osm",
      "tags": {
        "name": "Heiligensee",
        "name:prefix": "Ortsteil",
        "note": "siehe Relation für Details",
        "place": "suburb"
      }
    },
    {
      "id": "node/78165700",
      "name": "Frohnau",
      "name_local": "Frohnau",
      "slug": "frohnau",
      "center": {
        "lat": 52.6323917,
        "lon": 13.2878663
      },
      "bbox": null,
      "source": "osm",
      "tags": {
        "name": "Frohnau",
        "name:prefix": "Ortsteil",
        "note": "siehe Relation für Details",
        "place": "suburb"
      }
    },
    {
      "id": "node/129648004",
      "name": "Lichterfelde",
      "name_local": "Lichterfelde",
      "slug": "lichterfelde",
      "center": {
        "lat": 52.437293,
        "lon": 13.3138645
      },
      "bbox": null,
      "source": "osm",
      "tags": {
        "name": "Lichterfelde",
        "name:prefix": "Ortsteil",
        "note": "siehe Relation für Details",
        "place": "suburb",
        "wikidata": "Q155211",
        "wikipedia": "de:Berlin-Lichterfelde"
      }
    },
    {
      "id": "node/129875262",
      "name": "Neukölln",
      "name_local": "Neukölln",
      "slug": "neuk_lln",
      "center": {
        "lat": 52.4811497,
        "lon": 13.4353501
      },
      "bbox": null,
      "source": "osm",
      "tags": {
        "loc_name": "Nord-Neukölln",
        "name": "Neukölln",
        "name:el": "Νωικολλν",
        "name:ka": "ნოიქოლნი",
        "name:prefix": "Ortsteil",
        "name:ru": "Нойкёллн",
        "name:zh": "新克尔恩",
        "name:zh-Hans": "新克尔恩",
        "name:zh-Hant": "新克爾恩",
        "note": "siehe Relation für Details",
        "place": "suburb",
        "population": "167248",
        "population:date": "2016-06-30",
        "population:suburb": "Ortsteil",
        "source:population": "https://de.wikipedia.org/wiki/Bezirk_Neuk%C3%B6lln"
      }
    },
    {
      "id": "node/144739696",
      "name": "Vier Eichen",
      "name_local": "Vier Eichen",
      "slug": "vier_eichen",
      "center": {
        "lat": 52.4697215,
        "lon": 13.2103281
      },
      "bbox": null,
      "source": "osm",
      "tags": {
        "name": "Vier Eichen",
        "place": "locality"
      }
    },
    {
      "id": "node/145749229",
      "name": "Hermsdorf",
      "name_local": "Hermsdorf",
      "slug": "hermsdorf",
      "center": {
        "lat": 52.6183341,
        "lon": 13.3110313
      },
      "bbox": null,
      "source": "osm",
      "tags": {
        "name": "Hermsdorf",
        "name:prefix": "Ortsteil",
        "note": "siehe Relation für Details",
        "place": "suburb"
      }
    },
    {
      "id": "node/145752097",
      "name": "Lübars",
      "name_local": "Lübars",
      "slug": "l_bars",
      "center": {
        "lat": 52.6146467,
        "lon": 13.3530197
      },
      "bbox": null,
      "source": "osm",
      "tags": {
        "name": "Lübars",
        "name:prefix": "Ortsteil",
        "note": "siehe Relation für Details",
        "place": "suburb"
      }
    },
    {
      "id": "node/145785609",
      "name": "Wittenau",
      "name_local": "Wittenau",
      "slug": "wittenau",
      "center": {
        "lat": 52.5912366,
        "lon": 13.3233195
      },
      "bbox": null,
      "source": "osm",
      "tags": {
        "name": "Wittenau",
        "name:prefix": "Ortsteil",
        "note": "siehe Relation für Details",
        "place": "suburb"
      }
    },
    {
      "id": "node/150545069",
      "name": "Charlottenburg-Nord",
      "name_local": "Charlottenburg-Nord",
      "slug": "charlottenburg_nord",
      "center": {
        "lat": 52.5405253,
        "lon": 13.2962663
      },
      "bbox": null,
      "source": "osm",
      "tags": {
        "name": "Charlottenburg-Nord",
        "name:prefix": "Ortsteil",
        "note": "siehe Relation für Details",
        "place": "suburb"
      }
    },
    {
      "id": "node/150545071",
      "name": "Siemensstadt",
      "name_local": "Siemensstadt",
      "slug": "siemensstadt",
      "center": {
        "lat": 52.5398082,
        "lon": 13.2568934
      },
      "bbox": null,
      "source": "osm",
      "tags": {
        "alt_name": "Kolonie Nonnendamm",
        "name": "Siemensstadt",
        "name:prefix": "Ortsteil",
        "note": "siehe Relation für Details",
        "place": "suburb"
      }
    },
    {
      "id": "node/151013210",
      "name": "Biesdorf-Süd",
      "name_local": "Biesdorf-Süd",
      "slug": "biesdorf_s_d",
      "center": {
        "lat": 52.4985344,
        "lon": 13.5606634
      },
      "bbox": null,
      "source": "osm",
      "tags": {
        "name": "Biesdorf-Süd",
        "place": "quarter"
      }
    },
    {
      "id": "node/151013231",
      "name": "Marzahn",
      "name_local": "Marzahn",
      "slug": "marzahn",
      "center": {
        "lat": 52.5429481,
        "lon": 13.563142
      },
      "bbox": null,
      "source": "osm",
      "tags": {
        "name": "Marzahn",
        "name:prefix": "Ortsteil",
        "place": "suburb"
      }
    },
    {
      "id": "node/151013576",
      "name": "Friedrichsfelde Ost",
      "name_local": "Friedrichsfelde Ost",
      "slug": "friedrichsfelde_ost",
      "center": {
        "lat": 52.5205784,
        "lon": 13.5308651
      },
      "bbox": null,
      "source": "osm",
      "tags": {
        "name": "Friedrichsfelde Ost",
        "place": "neighbourhood"
      }
    },
    {
      "id": "node/151014537",
      "name": "Friedrichsfelde",
      "name_local": "Friedrichsfelde",
      "slug": "friedrichsfelde",
      "center": {
        "lat": 52.5029358,
        "lon": 13.5205456
      },
      "bbox": null,
      "source": "osm",
      "tags": {
        "name": "Friedrichsfelde",
        "name:prefix": "Ortsteil",
        "note": "siehe Relation für Details",
        "place": "suburb"
      }
    },
    {
      "id": "node/159561548",
      "name": "Reinickendorf",
      "name_local": "Reinickendorf",
      "slug": "reinickendorf",
      "center": {
        "lat": 52.5711856,
        "lon": 13.3455963
      },
      "bbox": null,
      "source": "osm",
      "tags": {
        "name": "Reinickendorf",
        "name:prefix": "Ortsteil",
        "note": "siehe Relation für Details",
        "place": "suburb",
        "population": "240454",
        "postal_code": "13403;13407;13409"
      }
    },
    {
      "id": "node/159563028",
      "name": "Borsigwalde",
      "name_local": "Borsigwalde",
      "slug": "borsigwalde",
      "center": {
        "lat": 52.5840624,
        "lon": 13.3022741
      },
      "bbox": null,
      "source": "osm",
      "tags": {
        "name": "Borsigwalde",
        "name:prefix": "Ortsteil",
        "note": "siehe Relation für Details",
        "place": "suburb"
      }
    },
    {
      "id": "node/159571458",
      "name": "Waidmannslust",
      "name_local": "Waidmannslust",
      "slug": "waidmannslust",
      "center": {
        "lat": 52.6080354,
        "lon": 13.3225327
      },
      "bbox": null,
      "source": "osm",
      "tags": {
        "name": "Waidmannslust",
        "name:prefix": "Ortsteil",
        "note": "siehe Relation für Details,Ortsteil!",
        "place": "suburb"
      }
    },
    {
      "id": "node/159750674",
      "name": "Schönholz",
      "name_local": "Schönholz",
      "slug": "sch_nholz",
      "center": {
        "lat": 52.5748176,
        "lon": 13.3806375
      },
      "bbox": null,
      "source": "osm",
      "tags": {
        "name": "Schönholz",
        "place": "quarter"
      }
    },
    {
      "id": "node/159769182",
      "name": "Wedding",
      "name_local": "Wedding",
      "slug": "wedding",
      "center": {
        "lat": 52.548949,
        "lon": 13.3481653
      },
      "bbox": null,
      "source": "osm",
      "tags": {
        "name": "Wedding",
        "name:prefix": "Ortsteil",
        "note": "siehe Relation für Details",
        "place": "suburb",
        "wikidata": "Q675187",
        "wikipedia": "de:Berlin-Wedding"
      }
    },
    {
      "id": "node/159770854",
      "name": "Märkisches Viertel",
      "name_local": "Märkisches Viertel",
      "slug": "m_rkisches_viertel",
      "center": {
        "lat": 52.5993123,
        "lon": 13.3565324
      },
      "bbox": null,
      "source": "osm",
      "tags": {
        "name": "Märkisches Viertel",
        "name:prefix": "Ortsteil",
        "note": "siehe Relation für Details",
        "place": "suburb"
      }
    },
    {
      "id": "node/159775126",
      "name": "Konradshöhe",
      "name_local": "Konradshöhe",
      "slug": "konradsh_he",
      "center": {
        "lat": 52.5856837,
        "lon": 13.2231978
      },
      "bbox": null,
      "source": "osm",
      "tags": {
        "name": "Konradshöhe",
        "name:prefix": "Ortsteil",
        "note": "siehe Relation für Details",
        "place": "suburb"
      }
    },
    {
      "id": "node/160281417",
      "name": "Saatwinkel",
      "name_local": "Saatwinkel",
      "slug": "saatwinkel",
      "center": {
        "lat": 52.5620127,
        "lon": 13.2464
      },
      "bbox": null,
      "source": "osm",
      "tags": {
        "name": "Saatwinkel",
        "place": "neighbourhood"
      }
    },
    {
      "id": "node/160330614",
      "name": "Tiergarten",
      "name_local": "Tiergarten",
      "slug": "tiergarten",
      "center": {
        "lat": 52.5097776,
        "lon": 13.3572597
      },
      "bbox": null,
      "source": "osm",
      "tags": {
        "name": "Tiergarten",
        "name:prefix": "Ortsteil",
        "place": "suburb",
        "wikidata": "Q328672",
        "wikipedia": "en:Tiergarten (Berlin)"
      }
    },
    {
      "id": "node/160332579",
      "name": "Hansaviertel",
      "name_local": "Hansaviertel",
      "slug": "hansaviertel",
      "center": {
        "lat": 52.5191234,
        "lon": 13.3418725
      },
      "bbox": null,
      "source": "osm",
      "tags": {
        "name": "Hansaviertel",
        "name:prefix": "Ortsteil",
        "place": "suburb",
        "wikidata": "Q427582",
        "wikipedia": "de:Berlin-Hansaviertel"
      }
    },
    {
      "id": "node/161548665",
      "name": "Falkenhagener Feld",
      "name_local": "Falkenhagener Feld",
      "slug": "falkenhagener_feld",
      "center": {
        "lat": 52.5524034,
        "lon": 13.1668941
      },
      "bbox": null,
      "source": "osm",
      "tags": {
        "name": "Falkenhagener Feld",
        "name:prefix": "Ortsteil",
        "note": "siehe Relation für Details",
        "place": "suburb"
      }
    },
    {
      "id": "node/161557666",
      "name": "Haselhorst",
      "name_local": "Haselhorst",
      "slug": "haselhorst",
      "center": {
        "lat": 52.5413233,
        "lon": 13.231156
      },
      "bbox": null,
      "source": "osm",
      "tags": {
        "name": "Haselhorst",
        "name:prefix": "Ortsteil",
        "note": "siehe Relation für Details",
        "place": "suburb"
      }
    },
    {
      "id": "node/161585770",
      "name": "Wilhelmsruh",
      "name_local": "Wilhelmsruh",
      "slug": "wilhelmsruh",
      "center": {
        "lat": 52.5880115,
        "lon": 13.3622059
      },
      "bbox": null,
      "source": "osm",
      "tags": {
        "name": "Wilhelmsruh",
        "name:prefix": "Ortsteil",
        "note": "siehe Relation für Details",
        "place": "suburb"
      }
    },
    {
      "id": "node/161588149",
      "name": "Schulzendorf",
      "name_local": "Schulzendorf",
      "slug": "schulzendorf",
      "center": {
        "lat": 52.6081216,
        "lon": 13.2563041
      },
      "bbox": null,
      "source": "osm",
      "tags": {
        "alt_name": "Schulzendorf bei Tegel",
        "name": "Schulzendorf",
        "place": "neighbourhood"
      }
    },
    {
      "id": "node/161603501",
      "name": "Buch",
      "name_local": "Buch",
      "slug": "buch",
      "center": {
        "lat": 52.6366724,
        "lon": 13.4999292
      },
      "bbox": null,
      "source": "osm",
      "tags": {
        "name": "Buch",
        "note": "siehe Relation für Details",
        "place": "suburb"
      }
    },
    {
      "id": "node/161618720",
      "name": "Altglienicke",
      "name_local": "Altglienicke",
      "slug": "altglienicke",
      "center": {
        "lat": 52.4118651,
        "lon": 13.5425859
      },
      "bbox": null,
      "source": "osm",
      "tags": {
        "name": "Altglienicke",
        "name:prefix": "Ortsteil",
        "note": "siehe Relation für Details",
        "place": "suburb"
      }
    },
    {
      "id": "node/161876290",
      "name": "Rosenthal",
      "name_local": "Rosenthal",
      "slug": "rosenthal",
      "center": {
        "lat": 52.5983189,
        "lon": 13.3755194
      },
      "bbox": null,
      "source": "osm",
      "tags": {
        "name": "Rosenthal",
        "name:prefix": "Ortsteil",
        "note": "siehe Relation für Details",
        "place": "suburb"
      }
    },
    {
      "id": "node/161879644",
      "name": "Niederschönhausen",
      "name_local": "Niederschönhausen",
      "slug": "niedersch_nhausen",
      "center": {
        "lat": 52.5858062,
        "lon": 13.401397
      },
      "bbox": null,
      "source": "osm",
      "tags": {
        "name": "Niederschönhausen",
        "name:prefix": "Ortsteil",
        "note": "siehe Relation für Details",
        "place": "suburb"
      }
    },
    {
      "id": "node/162010487",
      "name": "Gropiusstadt",
      "name_local": "Gropiusstadt",
      "slug": "gropiusstadt",
      "center": {
        "lat": 52.4249493,
        "lon": 13.466183
      },
      "bbox": null,
      "source": "osm",
      "tags": {
        "name": "Gropiusstadt",
        "name:prefix": "Ortsteil",
        "note": "siehe Relation für Details",
        "place": "suburb"
      }
    },
    {
      "id": "node/162012321",
      "name": "Mitte",
      "name_local": "Mitte",
      "slug": "mitte",
      "center": {
        "lat": 52.5178855,
        "lon": 13.4040601
      },
      "bbox": null,
      "source": "osm",
      "tags": {
        "name": "Mitte",
        "name:de": "Mitte",
        "name:prefix": "Ortsteil",
        "name:ru": "Митте",
        "note": "siehe Relation für Details",
        "place": "suburb",
        "wikidata": "Q2013767",
        "wikipedia": "de:Berlin-Mitte"
      }
    },
    {
      "id": "node/163830590",
      "name": "Gesundbrunnen",
      "name_local": "Gesundbrunnen",
      "slug": "gesundbrunnen",
      "center": {
        "lat": 52.5509201,
        "lon": 13.384846
      },
      "bbox": null,
      "source": "osm",
      "tags": {
        "name": "Gesundbrunnen",
        "name:ja": "ゲズントブルネン",
        "name:prefix": "Ortsteil",
        "note": "siehe Relation für Details",
        "place": "suburb"
      }
    },
    {
      "id": "node/163852973",
      "name": "Prenzlauer Berg",
      "name_local": "Prenzlauer Berg",
      "slug": "prenzlauer_berg",
      "center": {
        "lat": 52.5398466,
        "lon": 13.4285652
      },
      "bbox": null,
      "source": "osm",
      "tags": {
        "loc_name": "Prenzlberg",
        "name": "Prenzlauer Berg",
        "name:prefix": "Ortsteil",
        "note": "siehe Relation für Details",
        "place": "suburb",
        "population": "149974"
      }
    },
    {
      "id": "node/163861801",
      "name": "Französisch Buchholz",
      "name_local": "Französisch Buchholz",
      "slug": "franz_sisch_buchholz",
      "center": {
        "lat": 52.6105131,
        "lon": 13.4281104
      },
      "bbox": null,
      "source": "osm",
      "tags": {
        "name": "Französisch Buchholz",
        "name:prefix": "Ortsteil",
        "note": "siehe Relation für Details",
        "place": "suburb"
      }
    },
    {
      "id": "node/163871381",
      "name": "Wilhelmstadt",
      "name_local": "Wilhelmstadt",
      "slug": "wilhelmstadt",
      "center": {
        "lat": 52.5189172,
        "lon": 13.1973459
      },
      "bbox": null,
      "source": "osm",
      "tags": {
        "name": "Wilhelmstadt",
        "name:prefix": "Ortsteil",
        "note": "siehe Relation für Details",
        "place": "suburb"
      }
    },
    {
      "id": "node/163886348",
      "name": "Britz",
      "name_local": "Britz",
      "slug": "britz",
      "center": {
        "lat": 52.4483324,
        "lon": 13.4423401
      },
      "bbox": null,
      "source": "osm",
      "tags": {
        "name": "Britz",
        "name:prefix": "Ortsteil",
        "note": "siehe Relation für Details",
        "place": "suburb"
      }
    },
    {
      "id": "node/164030102",
      "name": "Schönow",
      "name_local": "Schönow",
      "slug": "sch_now",
      "center": {
        "lat": 52.410827,
        "lon": 13.2707131
      },
      "bbox": null,
      "source": "osm",
      "tags": {
        "alt_name": "Zehlendorf-Süd",
        "is_in": "Berlin,Bundesrepublik Deutschland,Europe",
        "name": "Schönow",
        "place": "quarter",
        "wikidata": "Q870611",
        "wikipedia": "de:Schönow (Zehlendorf)"
      }
    },
    {
      "id": "node/242769301",
      "name": "Murellenschlucht",
      "name_local": "Murellenschlucht",
      "slug": "murellenschlucht",
      "center": {
        "lat": 52.5154431,
        "lon": 13.2248959
      },
      "bbox": null,
      "source": "osm",
      "tags": {
        "ele": "39.5",
        "name": "Murellenschlucht",
        "place": "locality",
        "wikidata": "Q1953639",
        "wikipedia": "de:Murellenberge, Murellenschlucht und Schanzenwald"
      }
    },
    {
      "id": "node/257096971",
      "name": "Lankwitz",
      "name_local": "Lankwitz",
      "slug": "lankwitz",
      "center": {
        "lat": 52.4336977,
        "lon": 13.3454858
      },
      "bbox": null,
      "source": "osm",
      "tags": {
        "name": "Lankwitz",
        "name:prefix": "Ortsteil",
        "note": "siehe Relation für Details",
        "place": "suburb"
      }
    },
    {
      "id": "node/257097215",
      "name": "Nikolassee",
      "name_local": "Nikolassee",
      "slug": "nikolassee",
      "center": {
        "lat": 52.4262495,
        "lon": 13.1981446
      },
      "bbox": null,
      "source": "osm",
      "tags": {
        "name": "Nikolassee",
        "name:prefix": "Ortsteil",
        "note": "siehe Relation für Details",
        "place": "suburb"
      }
    },
    {
      "id": "node/261670146",
      "name": "Grünau",
      "name_local": "Grünau",
      "slug": "gr_nau",
      "center": {
        "lat": 52.4154272,
        "lon": 13.5805633
      },
      "bbox": null,
      "source": "osm",
      "tags": {
        "name": "Grünau",
        "name:prefix": "Ortsteil",
        "note": "siehe Relation für Details",
        "place": "suburb"
      }
    },
    {
      "id": "node/261713255",
      "name": "Alt-Treptow",
      "name_local": "Alt-Treptow",
      "slug": "alt_treptow",
      "center": {
        "lat": 52.4925634,
        "lon": 13.4598743
      },
      "bbox": null,
      "source": "osm",
      "tags": {
        "name": "Alt-Treptow",
        "name:prefix": "Ortsteil",
        "note": "siehe Relation für Details",
        "place": "suburb"
      }
    },
    {
      "id": "node/261713413",
      "name": "Plänterwald",
      "name_local": "Plänterwald",
      "slug": "pl_nterwald",
      "center": {
        "lat": 52.4795439,
        "lon": 13.4788076
      },
      "bbox": null,
      "source": "osm",
      "tags": {
        "name": "Plänterwald",
        "name:prefix": "Ortsteil",
        "note": "siehe Relation für Details",
        "place": "suburb"
      }
    },
    {
      "id": "node/262328057",
      "name": "Friedrichshain",
      "name_local": "Friedrichshain",
      "slug": "friedrichshain",
      "center": {
        "lat": 52.5122154,
        "lon": 13.4502904
      },
      "bbox": null,
      "source": "osm",
      "tags": {
        "name": "Friedrichshain",
        "name:prefix": "Ortsteil",
        "note": "siehe Relation für Details",
        "place": "suburb",
        "population": "114050"
      }
    },
    {
      "id": "node/262328235",
      "name": "Kreuzberg",
      "name_local": "Kreuzberg",
      "slug": "kreuzberg",
      "center": {
        "lat": 52.4976443,
        "lon": 13.411914
      },
      "bbox": null,
      "source": "osm",
      "tags": {
        "name": "Kreuzberg",
        "name:prefix": "Ortsteil",
        "note": "siehe Relation für Details",
        "place": "suburb",
        "population": "147227"
      }
    },
    {
      "id": "node/262329281",
      "name": "Baumschulenweg",
      "name_local": "Baumschulenweg",
      "slug": "baumschulenweg",
      "center": {
        "lat": 52.4616938,
        "lon": 13.4815479
      },
      "bbox": null,
      "source": "osm",
      "tags": {
        "name": "Baumschulenweg",
        "name:prefix": "Ortsteil",
        "note": "siehe Relation für Details",
        "place": "suburb"
      }
    },
    {
      "id": "node/288659908",
      "name": "Köpenick",
      "name_local": "Köpenick",
      "slug": "k_penick",
      "center": {
        "lat": 52.4450491,
        "lon": 13.5754153
      },
      "bbox": null,
      "source": "osm",
      "tags": {
        "name": "Köpenick",
        "name:dsb": "Kopjenik",
        "name:prefix": "Ortsteil",
        "note": "siehe Relation für Details",
        "place": "suburb",
        "wikidata": "Q521521",
        "wikipedia": "de:Berlin-Köpenick"
      }
    },
    {
      "id": "node/288784639",
      "name": "Rummelsburg",
      "name_local": "Rummelsburg",
      "slug": "rummelsburg",
      "center": {
        "lat": 52.5013696,
        "lon": 13.4835143
      },
      "bbox": null,
      "source": "osm",
      "tags": {
        "name": "Rummelsburg",
        "name:prefix": "Ortsteil",
        "note": "siehe Relation für Details",
        "place": "suburb"
      }
    },
    {
      "id": "node/310166304",
      "name": "Die Holzkaveln",
      "name_local": "Die Holzkaveln",
      "slug": "die_holzkaveln",
      "center": {
        "lat": 52.4088972,
        "lon": 13.7160183
      },
      "bbox": null,
      "source": "osm",
      "tags": {
        "name": "Die Holzkaveln",
        "place": "locality"
      }
    },
    {
      "id": "node/310233624",
      "name": "Streitwall",
      "name_local": "Streitwall",
      "slug": "streitwall",
      "center": {
        "lat": 52.4064649,
        "lon": 13.7361793
      },
      "bbox": null,
      "source": "osm",
      "tags": {
        "name": "Streitwall",
        "place": "locality"
      }
    },
    {
      "id": "node/331138541",
      "name": "Johannisthal",
      "name_local": "Johannisthal",
      "slug": "johannisthal",
      "center": {
        "lat": 52.4459114,
        "lon": 13.504547
      },
      "bbox": null,
      "source": "osm",
      "tags": {
        "name": "Johannisthal",
        "name:de": "Johannisthal",
        "name:prefix": "Ortsteil",
        "name:ru": "Йоханнисталь",
        "note": "siehe Relation für Details",
        "place": "suburb",
        "wikidata": "Q655012",
        "wikipedia": "de:Berlin-Johannisthal"
      }
    },
    {
      "id": "node/331139102",
      "name": "Lichtenberg",
      "name_local": "Lichtenberg",
      "slug": "lichtenberg",
      "center": {
        "lat": 52.5196723,
        "lon": 13.4950457
      },
      "bbox": null,
      "source": "osm",
      "tags": {
        "name": "Lichtenberg",
        "name:prefix": "Ortsteil",
        "note": "siehe Relation für Details",
        "place": "suburb"
      }
    },
    {
      "id": "node/331147926",
      "name": "Weißensee",
      "name_local": "Weißensee",
      "slug": "wei_ensee",
      "center": {
        "lat": 52.5546193,
        "lon": 13.4630018
      },
      "bbox": null,
      "source": "osm",
      "tags": {
        "name": "Weißensee",
        "name:de": "Weißensee",
        "name:prefix": "Ortsteil",
        "name:uk": "Ва́йсензе",
        "name:zh": "魏森塞",
        "note": "siehe Relation für Details",
        "place": "suburb"
      }
    },
    {
      "id": "node/429587386",
      "name": "Die Hufen im Seefelde",
      "name_local": "Die Hufen im Seefelde",
      "slug": "die_hufen_im_seefelde",
      "center": {
        "lat": 52.3916763,
        "lon": 13.5425827
      },
      "bbox": null,
      "source": "osm",
      "tags": {
        "name": "Die Hufen im Seefelde",
        "place": "neighbourhood"
      }
    },
    {
      "id": "node/492310838",
      "name": "Alt-Hohenschönhausen",
      "name_local": "Alt-Hohenschönhausen",
      "slug": "alt_hohensch_nhausen",
      "center": {
        "lat": 52.5504091,
        "lon": 13.5025491
      },
      "bbox": null,
      "source": "osm",
      "tags": {
        "name": "Alt-Hohenschönhausen",
        "name:prefix": "Ortsteil",
        "note": "siehe Relation für Details",
        "place": "suburb"
      }
    },
    {
      "id": "node/507915758",
      "name": "Stadtrandsiedlung Malchow",
      "name_local": "Stadtrandsiedlung Malchow",
      "slug": "stadtrandsiedlung_malchow",
      "center": {
        "lat": 52.5710194,
        "lon": 13.4632849
      },
      "bbox": null,
      "source": "osm",
      "tags": {
        "name": "Stadtrandsiedlung Malchow",
        "name:prefix": "Ortsteil",
        "note": "siehe Relation für Details",
        "place": "suburb"
      }
    },
    {
      "id": "node/529808088",
      "name": "Biesdorf",
      "name_local": "Biesdorf",
      "slug": "biesdorf",
      "center": {
        "lat": 52.5109922,
        "lon": 13.5550131
      },
      "bbox": null,
      "source": "osm",
      "tags": {
        "name": "Biesdorf",
        "name:prefix": "Ortsteil",
        "note": "siehe Relation für Details",
        "place": "suburb"
      }
    },
    {
      "id": "node/539358887",
      "name": "Alt-Berlin",
      "name_local": "Alt-Berlin",
      "slug": "alt_berlin",
      "center": {
        "lat": 52.519961,
        "lon": 13.4082985
      },
      "bbox": null,
      "source": "osm",
      "tags": {
        "historic:place": "city",
        "name": "Alt-Berlin",
        "place": "locality",
        "wikidata": "Q321674",
        "wikipedia": "de:Alt-Berlin"
      }
    },
    {
      "id": "node/539359809",
      "name": "Friedrichswerder",
      "name_local": "Friedrichswerder",
      "slug": "friedrichswerder",
      "center": {
        "lat": 52.5144976,
        "lon": 13.3981483
      },
      "bbox": null,
      "source": "osm",
      "tags": {
        "is_in": "Mitte,Berlin,Bundesrepublik Deutschland,Europe",
        "name": "Friedrichswerder",
        "place": "neighbourhood",
        "wikidata": "Q523623",
        "wikimedia_commons": "Category:Friedrichswerder",
        "wikipedia": "de:Berlin-Friedrichswerder"
      }
    },
    {
      "id": "node/539360863",
      "name": "Dorotheenstadt",
      "name_local": "Dorotheenstadt",
      "slug": "dorotheenstadt",
      "center": {
        "lat": 52.5186609,
        "lon": 13.3884475
      },
      "bbox": null,
      "source": "osm",
      "tags": {
        "is_in": "Mitte,Berlin,Bundesrepublik Deutschland,Europe",
        "name": "Dorotheenstadt",
        "place": "quarter",
        "wikidata": "Q677514",
        "wikimedia_commons": "Category:Berlin-Dorotheenstadt",
        "wikipedia": "de:Berlin-Dorotheenstadt"
      }
    },
    {
      "id": "node/539362369",
      "name": "Friedrichstadt",
      "name_local": "Friedrichstadt",
      "slug": "friedrichstadt",
      "center": {
        "lat": 52.5097492,
        "lon": 13.3899039
      },
      "bbox": null,
      "source": "osm",
      "tags": {
        "name": "Friedrichstadt",
        "place": "quarter",
        "wikidata": "Q706005",
        "wikimedia_commons": "Category:Friedrichstadt (Berlin)",
        "wikipedia": "de:Berlin-Friedrichstadt"
      }
    },
    {
      "id": "node/539362678",
      "name": "Luisenstadt",
      "name_local": "Luisenstadt",
      "slug": "luisenstadt",
      "center": {
        "lat": 52.5071836,
        "lon": 13.4158801
      },
      "bbox": null,
      "source": "osm",
      "tags": {
        "historic:place": "suburb",
        "name": "Luisenstadt",
        "old_name": "Köpenicker Vorstadt",
        "place": "quarter"
      }
    },
    {
      "id": "node/539363323",
      "name": "Stralauer Vorstadt",
      "name_local": "Stralauer Vorstadt",
      "slug": "stralauer_vorstadt",
      "center": {
        "lat": 52.5168091,
        "lon": 13.4351058
      },
      "bbox": null,
      "source": "osm",
      "tags": {
        "is_in": "Friedrichshain,Friedrichshain-Kreuzberg,Berlin,Bundesrepublik Deutschland,Europe",
        "name": "Stralauer Vorstadt",
        "place": "locality",
        "wikidata": "Q1713747",
        "wikipedia": "de:Stralauer Vorstadt"
      }
    },
    {
      "id": "node/539368274",
      "name": "Spandauer Vorstadt",
      "name_local": "Spandauer Vorstadt",
      "slug": "spandauer_vorstadt",
      "center": {
        "lat": 52.5257512,
        "lon": 13.3995437
      },
      "bbox": null,
      "source": "osm",
      "tags": {
        "historic:place": "suburb",
        "name": "Spandauer Vorstadt",
        "place": "quarter",
        "wikidata": "Q321016",
        "wikimedia_commons": "Category:Spandauer Vorstadt",
        "wikipedia": "de:Spandauer Vorstadt"
      }
    },
    {
      "id": "node/539369165",
      "name": "Scheunenviertel",
      "name_local": "Scheunenviertel",
      "slug": "scheunenviertel",
      "center": {
        "lat": 52.5258075,
        "lon": 13.4078674
      },
      "bbox": null,
      "source": "osm",
      "tags": {
        "name": "Scheunenviertel",
        "name:ja": "ショイネンフィアテル",
        "place": "neighbourhood",
        "wikidata": "Q896209",
        "wikimedia_commons": "Category:Scheunenviertel (Berlin)",
        "wikipedia": "de:Scheunenviertel (Berlin)"
      }
    },
    {
      "id": "node/560483804",
      "name": "Wannsee",
      "name_local": "Wannsee",
      "slug": "wannsee",
      "center": {
        "lat": 52.4211482,
        "lon": 13.1589374
      },
      "bbox": null,
      "source": "osm",
      "tags": {
        "heritage": "4",
        "heritage:operator": "lda",
        "lda:criteria": "Baudenkmal",
        "name": "Wannsee",
        "name:prefix": "Ortsteil",
        "note": "siehe Relation für Details",
        "old_name": "ehem. Gästehaus",
        "place": "suburb",
        "ref:lda": "09075568",
        "start_date": "1929"
      }
    },
    {
      "id": "node/560483805",
      "name": "Hakenfelde",
      "name_local": "Hakenfelde",
      "slug": "hakenfelde",
      "center": {
        "lat": 52.5609908,
        "lon": 13.1967693
      },
      "bbox": null,
      "source": "osm",
      "tags": {
        "name": "Hakenfelde",
        "name:prefix": "Ortsteil",
        "note": "siehe Relation für Details",
        "place": "suburb"
      }
    },
    {
      "id": "node/560483807",
      "name": "Fennpfuhl",
      "name_local": "Fennpfuhl",
      "slug": "fennpfuhl",
      "center": {
        "lat": 52.5287849,
        "lon": 13.4734687
      },
      "bbox": null,
      "source": "osm",
      "tags": {
        "name": "Fennpfuhl",
        "name:prefix": "Ortsteil",
        "note": "siehe Relation für Details",
        "place": "suburb"
      }
    },
    {
      "id": "node/560483808",
      "name": "Hellersdorf",
      "name_local": "Hellersdorf",
      "slug": "hellersdorf",
      "center": {
        "lat": 52.5366956,
        "lon": 13.6048728
      },
      "bbox": null,
      "source": "osm",
      "tags": {
        "name": "Hellersdorf",
        "name:prefix": "Ortsteil",
        "note": "siehe Relation für Details",
        "place": "suburb"
      }
    },
    {
      "id": "node/560483809",
      "name": "Malchow",
      "name_local": "Malchow",
      "slug": "malchow",
      "center": {
        "lat": 52.5798667,
        "lon": 13.4820928
      },
      "bbox": null,
      "source": "osm",
      "tags": {
        "name": "Malchow",
        "name:prefix": "Ortsteil",
        "note": "siehe Relation für Details",
        "place": "suburb"
      }
    },
    {
      "id": "node/560483810",
      "name": "Neu-Hohenschönhausen",
      "name_local": "Neu-Hohenschönhausen",
      "slug": "neu_hohensch_nhausen",
      "center": {
        "lat": 52.5663309,
        "lon": 13.514065
      },
      "bbox": null,
      "source": "osm",
      "tags": {
        "name": "Neu-Hohenschönhausen",
        "name:prefix": "Ortsteil",
        "note": "siehe Relation für Details",
        "place": "suburb"
      }
    },
    {
      "id": "node/560483811",
      "name": "Falkenberg",
      "name_local": "Falkenberg",
      "slug": "falkenberg",
      "center": {
        "lat": 52.5692998,
        "lon": 13.5400296
      },
      "bbox": null,
      "source": "osm",
      "tags": {
        "name": "Falkenberg",
        "name:prefix": "Ortsteil",
        "note": "siehe Relation für Details",
        "place": "suburb"
      }
    },
    {
      "id": "node/599873093",
      "name": "Rixdorf",
      "name_local": "Rixdorf",
      "slug": "rixdorf",
      "center": {
        "lat": 52.4740949,
        "lon": 13.4456092
      },
      "bbox": null,
      "source": "osm",
      "tags": {
        "name": "Rixdorf",
        "place": "neighbourhood",
        "wikidata": "Q50827814"
      }
    },
    {
      "id": "node/634105666",
      "name": "Giesensdorf",
      "name_local": "Giesensdorf",
      "slug": "giesensdorf",
      "center": {
        "lat": 52.4210907,
        "lon": 13.3111947
      },
      "bbox": null,
      "source": "osm",
      "tags": {
        "is_in": "Steglitz-Zehlendorf,Berlin,Bundesrepublik Deutschland,Europe",
        "name": "Giesensdorf",
        "place": "quarter",
        "wikidata": "Q1327074",
        "wikipedia": "de:Giesensdorf (Lichterfelde)"
      }
    },
    {
      "id": "node/870328601",
      "name": "Krughorn",
      "name_local": "Krughorn",
      "slug": "krughorn",
      "center": {
        "lat": 52.4238158,
        "lon": 13.1001904
      },
      "bbox": null,
      "source": "osm",
      "tags": {
        "direction": "90-270",
        "name": "Krughorn",
        "place": "locality",
        "tourism": "viewpoint"
      }
    },
    {
      "id": "node/1163980993",
      "name": "Grasehorst",
      "name_local": "Grasehorst",
      "slug": "grasehorst",
      "center": {
        "lat": 52.4083016,
        "lon": 13.7221015
      },
      "bbox": null,
      "source": "osm",
      "tags": {
        "name": "Grasehorst",
        "place": "locality"
      }
    },
    {
      "id": "node/1164363593",
      "name": "Espenwall",
      "name_local": "Espenwall",
      "slug": "espenwall",
      "center": {
        "lat": 52.4047767,
        "lon": 13.7083108
      },
      "bbox": null,
      "source": "osm",
      "tags": {
        "name": "Espenwall",
        "place": "locality"
      }
    },
    {
      "id": "node/1164380349",
      "name": "Große Wiesen",
      "name_local": "Große Wiesen",
      "slug": "gro_e_wiesen",
      "center": {
        "lat": 52.4057585,
        "lon": 13.7171513
      },
      "bbox": null,
      "source": "osm",
      "tags": {
        "name": "Große Wiesen",
        "place": "locality"
      }
    },
    {
      "id": "node/1189916581",
      "name": "Spreeknie",
      "name_local": "Spreeknie",
      "slug": "spreeknie",
      "center": {
        "lat": 52.4548573,
        "lon": 13.5257434
      },
      "bbox": null,
      "source": "osm",
      "tags": {
        "name": "Spreeknie",
        "place": "locality"
      }
    },
    {
      "id": "node/1554875830",
      "name": "Heinersdorf",
      "name_local": "Heinersdorf",
      "slug": "heinersdorf",
      "center": {
        "lat": 52.5728248,
        "lon": 13.4370149
      },
      "bbox": null,
      "source": "osm",
      "tags": {
        "name": "Heinersdorf",
        "name:prefix": "Ortsteil",
        "note": "siehe Relation für Details",
        "place": "suburb"
      }
    },
    {
      "id": "node/1583388419",
      "name": "Pankow",
      "name_local": "Pankow",
      "slug": "pankow",
      "center": {
        "lat": 52.5671778,
        "lon": 13.4063334
      },
      "bbox": null,
      "source": "osm",
      "tags": {
        "name": "Pankow",
        "name:prefix": "Ortsteil",
        "note": "siehe Relation für Details",
        "place": "suburb"
      }
    },
    {
      "id": "node/1588982756",
      "name": "Karow",
      "name_local": "Karow",
      "slug": "karow",
      "center": {
        "lat": 52.6132388,
        "lon": 13.4836984
      },
      "bbox": null,
      "source": "osm",
      "tags": {
        "name": "Karow",
        "name:prefix": "Ortsteil",
        "note": "siehe Relation für Details",
        "place": "suburb"
      }
    },
    {
      "id": "node/1665054453",
      "name": "Müggelheim",
      "name_local": "Müggelheim",
      "slug": "m_ggelheim",
      "center": {
        "lat": 52.4129665,
        "lon": 13.6643488
      },
      "bbox": null,
      "source": "osm",
      "tags": {
        "name": "Müggelheim",
        "name:prefix": "Ortsteil",
        "note": "siehe Relation für Details",
        "place": "suburb",
        "postal_code": "12559",
        "wikidata": "Q644380",
        "wikipedia": "de:Müggelheim"
      }
    },
    {
      "id": "node/1673625993",
      "name": "Kaulsdorf",
      "name_local": "Kaulsdorf",
      "slug": "kaulsdorf",
      "center": {
        "lat": 52.5101316,
        "lon": 13.5809901
      },
      "bbox": null,
      "source": "osm",
      "tags": {
        "name": "Kaulsdorf",
        "name:prefix": "Ortsteil",
        "note": "siehe Relation für Details",
        "place": "suburb"
      }
    },
    {
      "id": "node/1676561729",
      "name": "Lichtenrade",
      "name_local": "Lichtenrade",
      "slug": "lichtenrade",
      "center": {
        "lat": 52.3960834,
        "lon": 13.4057912
      },
      "bbox": null,
      "source": "osm",
      "tags": {
        "name": "Lichtenrade",
        "name:prefix": "Ortsteil",
        "note": "siehe Relation für Details",
        "place": "suburb"
      }
    },
    {
      "id": "node/1676561739",
      "name": "Mariendorf",
      "name_local": "Mariendorf",
      "slug": "mariendorf",
      "center": {
        "lat": 52.44008,
        "lon": 13.3900277
      },
      "bbox": null,
      "source": "osm",
      "tags": {
        "name": "Mariendorf",
        "name:prefix": "Ortsteil",
        "note": "siehe Relation für Details",
        "place": "suburb"
      }
    },
    {
      "id": "node/1676561741",
      "name": "Marienfelde",
      "name_local": "Marienfelde",
      "slug": "marienfelde",
      "center": {
        "lat": 52.4125766,
        "lon": 13.3665916
      },
      "bbox": null,
      "source": "osm",
      "tags": {
        "name": "Marienfelde",
        "name:prefix": "Ortsteil",
        "note": "siehe Relation für Details",
        "place": "suburb"
      }
    },
    {
      "id": "node/1676562755",
      "name": "Moabit",
      "name_local": "Moabit",
      "slug": "moabit",
      "center": {
        "lat": 52.5301017,
        "lon": 13.3425422
      },
      "bbox": null,
      "source": "osm",
      "tags": {
        "name": "Moabit",
        "name:prefix": "Ortsteil",
        "note": "siehe Relation für Details",
        "place": "suburb"
      }
    },
    {
      "id": "node/1676563639",
      "name": "Rahnsdorf",
      "name_local": "Rahnsdorf",
      "slug": "rahnsdorf",
      "center": {
        "lat": 52.4358729,
        "lon": 13.7018024
      },
      "bbox": null,
      "source": "osm",
      "tags": {
        "name": "Rahnsdorf",
        "name:prefix": "Ortsteil",
        "note": "siehe Relation für Details",
        "place": "suburb"
      }
    },
    {
      "id": "node/1696655982",
      "name": "Postsiedlung",
      "name_local": "Postsiedlung",
      "slug": "postsiedlung",
      "center": {
        "lat": 52.4112289,
        "lon": 13.4755021
      },
      "bbox": null,
      "source": "osm",
      "tags": {
        "name": "Postsiedlung",
        "place": "neighbourhood"
      }
    },
    {
      "id": "node/1773347994",
      "name": "Nordisches Viertel",
      "name_local": "Nordisches Viertel",
      "slug": "nordisches_viertel",
      "center": {
        "lat": 52.5523653,
        "lon": 13.4072901
      },
      "bbox": null,
      "source": "osm",
      "tags": {
        "alt_name": "Skandinavisches Viertel",
        "loc_name": "Arnimkiez",
        "name": "Nordisches Viertel",
        "place": "quarter"
      }
    },
    {
      "id": "node/1774925945",
      "name": "Rudow",
      "name_local": "Rudow",
      "slug": "rudow",
      "center": {
        "lat": 52.4146801,
        "lon": 13.4986183
      },
      "bbox": null,
      "source": "osm",
      "tags": {
        "name": "Rudow",
        "name:prefix": "Ortsteil",
        "note": "siehe Relation für Details",
        "place": "suburb",
        "population": "42033",
        "website": "https://www.rudow.de/"
      }
    },
    {
      "id": "node/1775453665",
      "name": "Spandau",
      "name_local": "Spandau",
      "slug": "spandau",
      "center": {
        "lat": 52.535788,
        "lon": 13.1977924
      },
      "bbox": null,
      "source": "osm",
      "tags": {
        "name": "Spandau",
        "name:prefix": "Ortsteil",
        "note": "siehe Relation für Details",
        "place": "suburb"
      }
    },
    {
      "id": "node/1777272684",
      "name": "Osthafen",
      "name_local": "Osthafen",
      "slug": "osthafen",
      "center": {
        "lat": 52.4979852,
        "lon": 13.4608548
      },
      "bbox": null,
      "source": "osm",
      "tags": {
        "name": "Osthafen",
        "place": "locality"
      }
    },
    {
      "id": "node/1804865341",
      "name": "Donaukiez",
      "name_local": "Donaukiez",
      "slug": "donaukiez",
      "center": {
        "lat": 52.4835032,
        "lon": 13.4338689
      },
      "bbox": null,
      "source": "osm",
      "tags": {
        "name": "Donaukiez",
        "name:ja": "ドナウキーツ",
        "place": "quarter",
        "population": "7818",
        "website": "https://www.donaustrasse-nord.de/"
      }
    },
    {
      "id": "node/1804865347",
      "name": "Flughafenkiez",
      "name_local": "Flughafenkiez",
      "slug": "flughafenkiez",
      "center": {
        "lat": 52.4816604,
        "lon": 13.4299452
      },
      "bbox": null,
      "source": "osm",
      "tags": {
        "name": "Flughafenkiez",
        "place": "quarter",
        "population": "8613",
        "website": "http://www.qm-flughafenstrasse.de/"
      }
    },
    {
      "id": "node/1804865359",
      "name": "Kungerkiez",
      "name_local": "Kungerkiez",
      "slug": "kungerkiez",
      "center": {
        "lat": 52.4901999,
        "lon": 13.4473739
      },
      "bbox": null,
      "source": "osm",
      "tags": {
        "name": "Kungerkiez",
        "place": "quarter",
        "website": "https://kungerkiez.de/"
      }
    },
    {
      "id": "node/1804865368",
      "name": "Reuterkiez",
      "name_local": "Reuterkiez",
      "slug": "reuterkiez",
      "center": {
        "lat": 52.4894373,
        "lon": 13.4296256
      },
      "bbox": null,
      "source": "osm",
      "tags": {
        "name": "Reuterkiez",
        "place": "quarter",
        "population": "18500",
        "website": "https://www.reuter-quartier.de/",
        "wikidata": "Q2146657",
        "wikipedia": "de:Reuterkiez"
      }
    },
    {
      "id": "node/1804865381",
      "name": "Rollbergsiedlung",
      "name_local": "Rollbergsiedlung",
      "slug": "rollbergsiedlung",
      "center": {
        "lat": 52.4768683,
        "lon": 13.4330137
      },
      "bbox": null,
      "source": "osm",
      "tags": {
        "alt_name": "Rollbergviertel",
        "name": "Rollbergsiedlung",
        "operator:type": "community",
        "place": "neighbourhood",
        "population": "5277",
        "website": "https://www.rollberg-quartier.de/",
        "wikidata": "Q1357022",
        "wikipedia": "de:Rollbergsiedlung"
      }
    },
    {
      "id": "node/1922499184",
      "name": "Komponistenviertel",
      "name_local": "Komponistenviertel",
      "slug": "komponistenviertel",
      "center": {
        "lat": 52.5483207,
        "lon": 13.4576533
      },
      "bbox": null,
      "source": "osm",
      "tags": {
        "name": "Komponistenviertel",
        "place": "quarter",
        "wikidata": "Q1587854",
        "wikimedia_commons": "Category:Komponistenviertel (Berlin-Weißensee)",
        "wikipedia": "de:Komponistenviertel (Berlin-Weißensee)"
      }
    },
    {
      "id": "node/2139474995",
      "name": "Schonungsberg",
      "name_local": "Schonungsberg",
      "slug": "schonungsberg",
      "center": {
        "lat": 52.4388353,
        "lon": 13.701838
      },
      "bbox": null,
      "source": "osm",
      "tags": {
        "ele": "58.5",
        "name": "Schonungsberg",
        "place": "locality"
      }
    },
    {
      "id": "node/2276193924",
      "name": "Karnickelberge",
      "name_local": "Karnickelberge",
      "slug": "karnickelberge",
      "center": {
        "lat": 52.3820013,
        "lon": 13.6319556
      },
      "bbox": null,
      "source": "osm",
      "tags": {
        "name": "Karnickelberge",
        "place": "locality"
      }
    },
    {
      "id": "node/2276193925",
      "name": "Bunkerberg",
      "name_local": "Bunkerberg",
      "slug": "bunkerberg",
      "center": {
        "lat": 52.384273,
        "lon": 13.639756
      },
      "bbox": null,
      "source": "osm",
      "tags": {
        "name": "Bunkerberg",
        "place": "locality"
      }
    },
    {
      "id": "node/2276201186",
      "name": "Richtershorn",
      "name_local": "Richtershorn",
      "slug": "richtershorn",
      "center": {
        "lat": 52.4013814,
        "lon": 13.6261741
      },
      "bbox": null,
      "source": "osm",
      "tags": {
        "name": "Richtershorn",
        "place": "locality"
      }
    },
    {
      "id": "node/2404944660",
      "name": "Mahlsdorf Nord",
      "name_local": "Mahlsdorf Nord",
      "slug": "mahlsdorf_nord",
      "center": {
        "lat": 52.5229728,
        "lon": 13.6316579
      },
      "bbox": null,
      "source": "osm",
      "tags": {
        "name": "Mahlsdorf Nord",
        "place": "quarter"
      }
    },
    {
      "id": "node/2404950642",
      "name": "Mahlsdorf Süd",
      "name_local": "Mahlsdorf Süd",
      "slug": "mahlsdorf_s_d",
      "center": {
        "lat": 52.4876545,
        "lon": 13.611831
      },
      "bbox": null,
      "source": "osm",
      "tags": {
        "name": "Mahlsdorf Süd",
        "place": "quarter"
      }
    },
    {
      "id": "node/2752426709",
      "name": "Sprengelkiez",
      "name_local": "Sprengelkiez",
      "slug": "sprengelkiez",
      "center": {
        "lat": 52.542215,
        "lon": 13.3569798
      },
      "bbox": null,
      "source": "osm",
      "tags": {
        "alt_name": "Sparrplatz-Quartier",
        "is_in:city": "Berlin",
        "is_in:country": "Germany",
        "is_in:country_code": "DE",
        "is_in:suburb": "Wedding",
        "name": "Sprengelkiez",
        "place": "quarter",
        "wikidata": "Q2313629",
        "wikipedia": "de:Sprengelkiez"
      }
    },
    {
      "id": "node/2784877702",
      "name": "Gartenstadt Falkenberg",
      "name_local": "Gartenstadt Falkenberg",
      "slug": "gartenstadt_falkenberg",
      "center": {
        "lat": 52.4109647,
        "lon": 13.5656912
      },
      "bbox": null,
      "source": "osm",
      "tags": {
        "name": "Gartenstadt Falkenberg",
        "place": "neighbourhood",
        "postal_code": "12524",
        "wikidata": "Q551256",
        "wikipedia": "de:Gartenstadt Falkenberg"
      }
    },
    {
      "id": "node/2790779996",
      "name": "Siedlung Grüneck",
      "name_local": "Siedlung Grüneck",
      "slug": "siedlung_gr_neck",
      "center": {
        "lat": 52.4139012,
        "lon": 13.5270877
      },
      "bbox": null,
      "source": "osm",
      "tags": {
        "name": "Siedlung Grüneck",
        "place": "neighbourhood"
      }
    },
    {
      "id": "node/2813635796",
      "name": "Julchens Winkel",
      "name_local": "Julchens Winkel",
      "slug": "julchens_winkel",
      "center": {
        "lat": 52.4056799,
        "lon": 13.6637881
      },
      "bbox": null,
      "source": "osm",
      "tags": {
        "name": "Julchens Winkel",
        "place": "locality"
      }
    },
    {
      "id": "node/2813669319",
      "name": "Der Windwall",
      "name_local": "Der Windwall",
      "slug": "der_windwall",
      "center": {
        "lat": 52.3833754,
        "lon": 13.6669424
      },
      "bbox": null,
      "source": "osm",
      "tags": {
        "name": "Der Windwall",
        "place": "locality"
      }
    },
    {
      "id": "node/2813669320",
      "name": "Windecke",
      "name_local": "Windecke",
      "slug": "windecke",
      "center": {
        "lat": 52.3808541,
        "lon": 13.6573299
      },
      "bbox": null,
      "source": "osm",
      "tags": {
        "name": "Windecke",
        "place": "locality"
      }
    },
    {
      "id": "node/3101857107",
      "name": "Stadtquartier Friesenstraße",
      "name_local": "Stadtquartier Friesenstraße",
      "slug": "stadtquartier_friesenstra_e",
      "center": {
        "lat": 52.4854071,
        "lon": 13.3927488
      },
      "bbox": null,
      "source": "osm",
      "tags": {
        "name": "Stadtquartier Friesenstraße",
        "place": "neighbourhood"
      }
    },
    {
      "id": "node/3123699877",
      "name": "Kollwitzkiez",
      "name_local": "Kollwitzkiez",
      "slug": "kollwitzkiez",
      "center": {
        "lat": 52.5345764,
        "lon": 13.4189248
      },
      "bbox": null,
      "source": "osm",
      "tags": {
        "alt_name": "Schwabylon",
        "name": "Kollwitzkiez",
        "place": "quarter"
      }
    },
    {
      "id": "node/3331339884",
      "name": "Cité Pasteur",
      "name_local": "Cité Pasteur",
      "slug": "cit_pasteur",
      "center": {
        "lat": 52.5564963,
        "lon": 13.3044836
      },
      "bbox": null,
      "source": "osm",
      "tags": {
        "name": "Cité Pasteur",
        "place": "neighbourhood"
      }
    },
    {
      "id": "node/3652643275",
      "name": "Afrikanisches Viertel",
      "name_local": "Afrikanisches Viertel",
      "slug": "afrikanisches_viertel",
      "center": {
        "lat": 52.5542841,
        "lon": 13.3393266
      },
      "bbox": null,
      "source": "osm",
      "tags": {
        "is_in:city": "Berlin",
        "is_in:country": "Germany",
        "is_in:country_code": "DE",
        "is_in:suburb": "Wedding",
        "name": "Afrikanisches Viertel",
        "place": "quarter",
        "wikidata": "Q387659",
        "wikimedia_commons": "Category:Afrikanisches Viertel",
        "wikipedia": "de:Afrikanisches Viertel"
      }
    },
    {
      "id": "node/3652643276",
      "name": "Brüsseler Kiez",
      "name_local": "Brüsseler Kiez",
      "slug": "br_sseler_kiez",
      "center": {
        "lat": 52.5463445,
        "lon": 13.3519756
      },
      "bbox": null,
      "source": "osm",
      "tags": {
        "alt_name": "Belgisches Viertel",
        "is_in:city": "Berlin",
        "is_in:country": "Germany",
        "is_in:country_code": "DE",
        "is_in:suburb": "Wedding",
        "name": "Brüsseler Kiez",
        "place": "quarter",
        "wikidata": "Q997139",
        "wikipedia": "de:Brüsseler Kiez"
      }
    },
    {
      "id": "node/3652643277",
      "name": "Leopoldkiez",
      "name_local": "Leopoldkiez",
      "slug": "leopoldkiez",
      "center": {
        "lat": 52.5515133,
        "lon": 13.3609173
      },
      "bbox": null,
      "source": "osm",
      "tags": {
        "alt_name": "Osramkiez",
        "is_in:city": "Berlin",
        "is_in:country": "Germany",
        "is_in:country_code": "DE",
        "is_in:suburb": "Wedding",
        "name": "Leopoldkiez",
        "place": "quarter"
      }
    },
    {
      "id": "node/3797582176",
      "name": "Kaulsdorf Süd",
      "name_local": "Kaulsdorf Süd",
      "slug": "kaulsdorf_s_d",
      "center": {
        "lat": 52.4935443,
        "lon": 13.5770594
      },
      "bbox": null,
      "source": "osm",
      "tags": {
        "name": "Kaulsdorf Süd",
        "place": "quarter"
      }
    },
    {
      "id": "node/3802565522",
      "name": "Müggelhort",
      "name_local": "Müggelhort",
      "slug": "m_ggelhort",
      "center": {
        "lat": 52.4311831,
        "lon": 13.675855
      },
      "bbox": null,
      "source": "osm",
      "tags": {
        "name": "Müggelhort",
        "place": "neighbourhood"
      }
    },
    {
      "id": "node/3802565523",
      "name": "Neuhelgoland",
      "name_local": "Neuhelgoland",
      "slug": "neuhelgoland",
      "center": {
        "lat": 52.4285118,
        "lon": 13.6822818
      },
      "bbox": null,
      "source": "osm",
      "tags": {
        "name": "Neuhelgoland",
        "place": "locality"
      }
    },
    {
      "id": "node/3865131551",
      "name": "Schweineecke",
      "name_local": "Schweineecke",
      "slug": "schweineecke",
      "center": {
        "lat": 52.3943871,
        "lon": 13.6894779
      },
      "bbox": null,
      "source": "osm",
      "tags": {
        "name": "Schweineecke",
        "place": "locality"
      }
    },
    {
      "id": "node/3865132535",
      "name": "Ajax Eck",
      "name_local": "Ajax Eck",
      "slug": "ajax_eck",
      "center": {
        "lat": 52.4040825,
        "lon": 13.662856
      },
      "bbox": null,
      "source": "osm",
      "tags": {
        "name": "Ajax Eck",
        "place": "locality"
      }
    },
    {
      "id": "node/3946321581",
      "name": "Bürknersfelde",
      "name_local": "Bürknersfelde",
      "slug": "b_rknersfelde",
      "center": {
        "lat": 52.5437338,
        "lon": 13.533228
      },
      "bbox": null,
      "source": "osm",
      "tags": {
        "name": "Bürknersfelde",
        "place": "locality"
      }
    },
    {
      "id": "node/4063357889",
      "name": "Gensinger Viertel",
      "name_local": "Gensinger Viertel",
      "slug": "gensinger_viertel",
      "center": {
        "lat": 52.5124106,
        "lon": 13.5302775
      },
      "bbox": null,
      "source": "osm",
      "tags": {
        "alt_name": "Friedrichsfelder Viertel",
        "name": "Gensinger Viertel",
        "place": "neighbourhood"
      }
    },
    {
      "id": "node/4387465357",
      "name": "Richardkiez",
      "name_local": "Richardkiez",
      "slug": "richardkiez",
      "center": {
        "lat": 52.4737043,
        "lon": 13.4454067
      },
      "bbox": null,
      "source": "osm",
      "tags": {
        "name": "Richardkiez",
        "place": "neighbourhood"
      }
    },
    {
      "id": "node/4794919616",
      "name": "Schillerkiez",
      "name_local": "Schillerkiez",
      "slug": "schillerkiez",
      "center": {
        "lat": 52.4764958,
        "lon": 13.4222776
      },
      "bbox": null,
      "source": "osm",
      "tags": {
        "name": "Schillerkiez",
        "place": "quarter",
        "population": "20254",
        "wikidata": "Q1167898",
        "wikipedia": "de:Schillerpromenade"
      }
    },
    {
      "id": "node/4954405525",
      "name": "Fischerinsel",
      "name_local": "Fischerinsel",
      "slug": "fischerinsel",
      "center": {
        "lat": 52.5134456,
        "lon": 13.4073396
      },
      "bbox": null,
      "source": "osm",
      "tags": {
        "historic:place": "suburb",
        "name": "Fischerinsel",
        "place": "neighbourhood"
      }
    },
    {
      "id": "node/4959884220",
      "name": "Bleibtreuhof",
      "name_local": "Bleibtreuhof",
      "slug": "bleibtreuhof",
      "center": {
        "lat": 52.505473,
        "lon": 13.3205044
      },
      "bbox": null,
      "source": "osm",
      "tags": {
        "name": "Bleibtreuhof",
        "place": "locality"
      }
    },
    {
      "id": "node/5005526654",
      "name": "Reihenhäuser Kalinka",
      "name_local": "Reihenhäuser Kalinka",
      "slug": "reihenh_user_kalinka",
      "center": {
        "lat": 52.5110548,
        "lon": 13.5277503
      },
      "bbox": null,
      "source": "osm",
      "tags": {
        "name": "Reihenhäuser Kalinka",
        "place": "neighbourhood"
      }
    },
    {
      "id": "node/5217773042",
      "name": "Südende",
      "name_local": "Südende",
      "slug": "s_dende",
      "center": {
        "lat": 52.4495757,
        "lon": 13.3536673
      },
      "bbox": null,
      "source": "osm",
      "tags": {
        "name": "Südende",
        "place": "quarter",
        "wikidata": "Q821149",
        "wikipedia": "de:Berlin-Südende"
      }
    },
    {
      "id": "node/5295940417",
      "name": "Spindlersfeld",
      "name_local": "Spindlersfeld",
      "slug": "spindlersfeld",
      "center": {
        "lat": 52.4484638,
        "lon": 13.5644851
      },
      "bbox": null,
      "source": "osm",
      "tags": {
        "name": "Spindlersfeld",
        "place": "neighbourhood"
      }
    },
    {
      "id": "node/5403335362",
      "name": "Weiße Siedlung",
      "name_local": "Weiße Siedlung",
      "slug": "wei_e_siedlung",
      "center": {
        "lat": 52.4740602,
        "lon": 13.4656548
      },
      "bbox": null,
      "source": "osm",
      "tags": {
        "name": "Weiße Siedlung",
        "place": "quarter",
        "population": "4300",
        "start_date": "1970s"
      }
    },
    {
      "id": "node/5517068913",
      "name": "Böhmisches Dorf",
      "name_local": "Böhmisches Dorf",
      "slug": "b_hmisches_dorf",
      "center": {
        "lat": 52.475977,
        "lon": 13.4446226
      },
      "bbox": null,
      "source": "osm",
      "tags": {
        "name": "Böhmisches Dorf",
        "old_name": "Böhmisch-Rixdorf",
        "place": "neighbourhood",
        "start_date": "1737",
        "wikidata": "Q325748",
        "wikipedia": "de:Böhmisch-Rixdorf"
      }
    },
    {
      "id": "node/5762288485",
      "name": "Cité Guynemer",
      "name_local": "Cité Guynemer",
      "slug": "cit_guynemer",
      "center": {
        "lat": 52.5676349,
        "lon": 13.2988904
      },
      "bbox": null,
      "source": "osm",
      "tags": {
        "name": "Cité Guynemer",
        "place": "neighbourhood"
      }
    },
    {
      "id": "node/5762288486",
      "name": "Cité Joffre",
      "name_local": "Cité Joffre",
      "slug": "cit_joffre",
      "center": {
        "lat": 52.5531416,
        "lon": 13.3094542
      },
      "bbox": null,
      "source": "osm",
      "tags": {
        "name": "Cité Joffre",
        "place": "neighbourhood",
        "postal_code": "13405"
      }
    },
    {
      "id": "node/5934640636",
      "name": "Altstadt Köpenick",
      "name_local": "Altstadt Köpenick",
      "slug": "altstadt_k_penick",
      "center": {
        "lat": 52.4466938,
        "lon": 13.5769665
      },
      "bbox": null,
      "source": "osm",
      "tags": {
        "name": "Altstadt Köpenick",
        "place": "neighbourhood"
      }
    },
    {
      "id": "node/5981543142",
      "name": "Schweizer Viertel",
      "name_local": "Schweizer Viertel",
      "slug": "schweizer_viertel",
      "center": {
        "lat": 52.4257147,
        "lon": 13.2967283
      },
      "bbox": null,
      "source": "osm",
      "tags": {
        "name": "Schweizer Viertel",
        "place": "quarter",
        "wikidata": "Q2256365",
        "wikipedia": "de:Schweizer Viertel (Berlin-Lichterfelde)"
      }
    },
    {
      "id": "node/6033605691",
      "name": "Gartenstadt Neu-Tempelhof",
      "name_local": "Gartenstadt Neu-Tempelhof",
      "slug": "gartenstadt_neu_tempelhof",
      "center": {
        "lat": 52.476357,
        "lon": 13.3813229
      },
      "bbox": null,
      "source": "osm",
      "tags": {
        "alt_name": "Fliegerviertel",
        "name": "Gartenstadt Neu-Tempelhof",
        "place": "quarter",
        "source": "https://de.wikipedia.org/wiki/Datei:Karte_Neu-Tempelhof.png",
        "wikipedia": "de:Neu-Tempelhof#Gartenstadt Neu-Tempelhof – Bereich B"
      }
    },
    {
      "id": "node/6313592834",
      "name": "Stralau",
      "name_local": "Stralau",
      "slug": "stralau",
      "center": {
        "lat": 52.4950522,
        "lon": 13.4711809
      },
      "bbox": null,
      "source": "osm",
      "tags": {
        "name": "Stralau",
        "place": "quarter",
        "wikidata": "Q821148",
        "wikipedia": "de:Berlin-Stralau"
      }
    },
    {
      "id": "node/6385803071",
      "name": "Holzhauser Markt",
      "name_local": "Holzhauser Markt",
      "slug": "holzhauser_markt",
      "center": {
        "lat": 52.5823373,
        "lon": 13.311516
      },
      "bbox": null,
      "source": "osm",
      "tags": {
        "name": "Holzhauser Markt",
        "place": "neighbourhood"
      }
    },
    {
      "id": "node/6610516354",
      "name": "Dammvorstadt",
      "name_local": "Dammvorstadt",
      "slug": "dammvorstadt",
      "center": {
        "lat": 52.4549323,
        "lon": 13.5766447
      },
      "bbox": null,
      "source": "osm",
      "tags": {
        "name": "Dammvorstadt",
        "place": "quarter",
        "wikidata": "Q1158675",
        "wikipedia": "de:Dammvorstadt (Köpenick)"
      }
    },
    {
      "id": "node/6783018598",
      "name": "Botschaftsviertel",
      "name_local": "Botschaftsviertel",
      "slug": "botschaftsviertel",
      "center": {
        "lat": 52.5079104,
        "lon": 13.3547881
      },
      "bbox": null,
      "source": "osm",
      "tags": {
        "alt_name": "Diplomatenviertel",
        "comment": "todo: polygon for area",
        "name": "Botschaftsviertel",
        "place": "neighbourhood",
        "wikidata": "Q10473647",
        "wikimedia_commons": "Category:Botschaftsviertel (Berlin)"
      }
    },
    {
      "id": "node/7342844217",
      "name": "Grüne Stadt",
      "name_local": "Grüne Stadt",
      "slug": "gr_ne_stadt",
      "center": {
        "lat": 52.535497,
        "lon": 13.4391909
      },
      "bbox": null,
      "source": "osm",
      "tags": {
        "name": "Grüne Stadt",
        "place": "quarter",
        "wikidata": "Q26254937",
        "wikipedia": "de:Grüne Stadt"
      }
    },
    {
      "id": "node/7342844218",
      "name": "Winsviertel",
      "name_local": "Winsviertel",
      "slug": "winsviertel",
      "center": {
        "lat": 52.5344232,
        "lon": 13.4257148
      },
      "bbox": null,
      "source": "osm",
      "tags": {
        "alt_name": "Winskiez",
        "name": "Winsviertel",
        "place": "quarter",
        "wikidata": "Q2230351",
        "wikipedia": "de:Winsviertel"
      }
    },
    {
      "id": "node/7342844219",
      "name": "Blumenviertel",
      "name_local": "Blumenviertel",
      "slug": "blumenviertel",
      "center": {
        "lat": 52.534166,
        "lon": 13.4581585
      },
      "bbox": null,
      "source": "osm",
      "tags": {
        "name": "Blumenviertel",
        "place": "neighbourhood"
      }
    },
    {
      "id": "node/7342877854",
      "name": "Bötzowkiez",
      "name_local": "Bötzowkiez",
      "slug": "b_tzowkiez",
      "center": {
        "lat": 52.5319119,
        "lon": 13.4343307
      },
      "bbox": null,
      "source": "osm",
      "tags": {
        "alt_name": "Bötzowviertel",
        "name": "Bötzowkiez",
        "place": "quarter",
        "wikidata": "Q1020181",
        "wikipedia": "de:Bötzowviertel"
      }
    },
    {
      "id": "node/7342896739",
      "name": "Barnimkiez",
      "name_local": "Barnimkiez",
      "slug": "barnimkiez",
      "center": {
        "lat": 52.5256199,
        "lon": 13.4250661
      },
      "bbox": null,
      "source": "osm",
      "tags": {
        "name": "Barnimkiez",
        "name:ja": "バルニムキーツ",
        "place": "neighbourhood"
      }
    },
    {
      "id": "node/7342896740",
      "name": "Hausburgviertel",
      "name_local": "Hausburgviertel",
      "slug": "hausburgviertel",
      "center": {
        "lat": 52.5235608,
        "lon": 13.4528422
      },
      "bbox": null,
      "source": "osm",
      "tags": {
        "name": "Hausburgviertel",
        "place": "quarter"
      }
    },
    {
      "id": "node/7342896741",
      "name": "Samariterviertel",
      "name_local": "Samariterviertel",
      "slug": "samariterviertel",
      "center": {
        "lat": 52.5172826,
        "lon": 13.4655019
      },
      "bbox": null,
      "source": "osm",
      "tags": {
        "alt_name": "Samariterkiez",
        "name": "Samariterviertel",
        "place": "quarter",
        "wikidata": "Q879307",
        "wikimedia_commons": "Category:Samariterviertel",
        "wikipedia": "de:Samariterviertel"
      }
    },
    {
      "id": "node/7712816592",
      "name": "Albrechts Teerofen",
      "name_local": "Albrechts Teerofen",
      "slug": "albrechts_teerofen",
      "center": {
        "lat": 52.3957673,
        "lon": 13.1616268
      },
      "bbox": null,
      "source": "osm",
      "tags": {
        "name": "Albrechts Teerofen",
        "place": "neighbourhood",
        "wikidata": "Q2640093",
        "wikimedia_commons": "Category:Albrechts Teerofen (Berlin-Wannsee)",
        "wikipedia": "de:Albrechts Teerofen"
      }
    },
    {
      "id": "node/7713197641",
      "name": "Stolpe (Wannsee)",
      "name_local": "Stolpe (Wannsee)",
      "slug": "stolpe_wannsee",
      "center": {
        "lat": 52.4125,
        "lon": 13.1413889
      },
      "bbox": null,
      "source": "osm",
      "tags": {
        "alt_name": "Wendisch-Stolpe",
        "name": "Stolpe (Wannsee)",
        "old_name": "Stolpeken",
        "place": "quarter",
        "wikidata": "Q824415",
        "wikimedia_commons": "Category:Stolpe (Berlin)",
        "wikipedia": "de:Stolpe (Wannsee)"
      }
    },
    {
      "id": "node/7713878547",
      "name": "Nikolskoe",
      "name_local": "Nikolskoe",
      "slug": "nikolskoe",
      "center": {
        "lat": 52.4242833,
        "lon": 13.117115
      },
      "bbox": null,
      "source": "osm",
      "tags": {
        "name": "Nikolskoe",
        "place": "neighbourhood",
        "wikidata": "Q1991947",
        "wikimedia_commons": "Category:Nikolskoe (Berlin)",
        "wikipedia": "de:Nikolskoe"
      }
    },
    {
      "id": "node/7726378081",
      "name": "Blumenwinkel",
      "name_local": "Blumenwinkel",
      "slug": "blumenwinkel",
      "center": {
        "lat": 52.5674055,
        "lon": 13.4487836
      },
      "bbox": null,
      "source": "osm",
      "tags": {
        "name": "Blumenwinkel",
        "place": "neighbourhood"
      }
    },
    {
      "id": "node/7728505225",
      "name": "Gleimviertel",
      "name_local": "Gleimviertel",
      "slug": "gleimviertel",
      "center": {
        "lat": 52.5472703,
        "lon": 13.4076092
      },
      "bbox": null,
      "source": "osm",
      "tags": {
        "name": "Gleimviertel",
        "place": "quarter",
        "wikidata": "Q1530441",
        "wikipedia": "de:Gleimviertel"
      }
    },
    {
      "id": "node/7775729029",
      "name": "Rote Insel",
      "name_local": "Rote Insel",
      "slug": "rote_insel",
      "center": {
        "lat": 52.4830737,
        "lon": 13.3617755
      },
      "bbox": null,
      "source": "osm",
      "tags": {
        "name": "Rote Insel",
        "place": "quarter",
        "wikidata": "Q464401",
        "wikipedia": "de:Rote Insel"
      }
    },
    {
      "id": "node/7903571613",
      "name": "Viereichen",
      "name_local": "Viereichen",
      "slug": "viereichen",
      "center": {
        "lat": 52.3954161,
        "lon": 13.1620568
      },
      "bbox": null,
      "source": "osm",
      "tags": {
        "name": "Viereichen",
        "place": "locality"
      }
    },
    {
      "id": "node/8223823963",
      "name": "Kuhwall",
      "name_local": "Kuhwall",
      "slug": "kuhwall",
      "center": {
        "lat": 52.4292226,
        "lon": 13.6187076
      },
      "bbox": null,
      "source": "osm",
      "tags": {
        "name": "Kuhwall",
        "place": "locality"
      }
    },
    {
      "id": "node/8254186959",
      "name": "Schlachtensee",
      "name_local": "Schlachtensee",
      "slug": "schlachtensee",
      "center": {
        "lat": 52.43846,
        "lon": 13.2140996
      },
      "bbox": null,
      "source": "osm",
      "tags": {
        "name": "Schlachtensee",
        "name:prefix": "Ortsteil",
        "note": "siehe Relation für Details",
        "place": "suburb"
      }
    },
    {
      "id": "node/9276123822",
      "name": "Siedlung Obstallee",
      "name_local": "Siedlung Obstallee",
      "slug": "siedlung_obstallee",
      "center": {
        "lat": 52.5207675,
        "lon": 13.1677445
      },
      "bbox": null,
      "source": "osm",
      "tags": {
        "alt_name": "Obstalleesiedlung",
        "name": "Siedlung Obstallee",
        "name:etymology:wikidata": "Q111348647",
        "place": "neighbourhood"
      }
    },
    {
      "id": "node/9276123823",
      "name": "Rudolf-Wissell-Siedlung",
      "name_local": "Rudolf-Wissell-Siedlung",
      "slug": "rudolf_wissell_siedlung",
      "center": {
        "lat": 52.5227223,
        "lon": 13.159768
      },
      "bbox": null,
      "source": "osm",
      "tags": {
        "name": "Rudolf-Wissell-Siedlung",
        "name:etymology:wikidata": "Q1650845",
        "place": "neighbourhood"
      }
    },
    {
      "id": "node/9276123824",
      "name": "Heerstraße Nord",
      "name_local": "Heerstraße Nord",
      "slug": "heerstra_e_nord",
      "center": {
        "lat": 52.5216282,
        "lon": 13.1630709
      },
      "bbox": null,
      "source": "osm",
      "tags": {
        "name": "Heerstraße Nord",
        "name:etymology:wikidata": "Q94863",
        "place": "quarter",
        "population": "28000",
        "population:date": "2015-12",
        "source:population": "Amt für Statistik Berlin-Brandenburg",
        "wikidata": "Q28595258",
        "wikipedia": "de:Heerstraße Nord"
      }
    },
    {
      "id": "node/9422289198",
      "name": "Englisches Viertel",
      "name_local": "Englisches Viertel",
      "slug": "englisches_viertel",
      "center": {
        "lat": 52.5577014,
        "lon": 13.3453191
      },
      "bbox": null,
      "source": "osm",
      "tags": {
        "name": "Englisches Viertel",
        "place": "quarter",
        "wikidata": "Q21978080",
        "wikimedia_commons": "Category:Englisches Viertel (Berlin-Wedding)",
        "wikipedia": "de:Englisches Viertel (Berlin)"
      }
    },
    {
      "id": "node/9516541154",
      "name": "Kaniswaller Wiesen",
      "name_local": "Kaniswaller Wiesen",
      "slug": "kaniswaller_wiesen",
      "center": {
        "lat": 52.4042032,
        "lon": 13.7280137
      },
      "bbox": null,
      "source": "osm",
      "tags": {
        "name": "Kaniswaller Wiesen",
        "place": "locality"
      }
    },
    {
      "id": "node/9516541155",
      "name": "Große Wiesen",
      "name_local": "Große Wiesen",
      "slug": "gro_e_wiesen",
      "center": {
        "lat": 52.409355,
        "lon": 13.731172
      },
      "bbox": null,
      "source": "osm",
      "tags": {
        "name": "Große Wiesen",
        "place": "locality"
      }
    },
    {
      "id": "node/9516541156",
      "name": "Bullenbuschwiese",
      "name_local": "Bullenbuschwiese",
      "slug": "bullenbuschwiese",
      "center": {
        "lat": 52.4135696,
        "lon": 13.7294339
      },
      "bbox": null,
      "source": "osm",
      "tags": {
        "name": "Bullenbuschwiese",
        "place": "locality"
      }
    },
    {
      "id": "node/9592974905",
      "name": "Südterrasse",
      "name_local": "Südterrasse",
      "slug": "s_dterrasse",
      "center": {
        "lat": 52.5391512,
        "lon": 13.5797181
      },
      "bbox": null,
      "source": "osm",
      "tags": {
        "name": "Südterrasse",
        "place": "locality"
      }
    },
    {
      "id": "node/9735752813",
      "name": "Helmholtzkiez",
      "name_local": "Helmholtzkiez",
      "slug": "helmholtzkiez",
      "center": {
        "lat": 52.5430391,
        "lon": 13.4190319
      },
      "bbox": null,
      "source": "osm",
      "tags": {
        "alt_name": "LSD-Viertel",
        "name": "Helmholtzkiez",
        "place": "quarter",
        "wikidata": "Q1603255",
        "wikipedia": "de:Helmholtzkiez"
      }
    },
    {
      "id": "node/10208392242",
      "name": "Invalidensiedlung",
      "name_local": "Invalidensiedlung",
      "slug": "invalidensiedlung",
      "center": {
        "lat": 52.6579168,
        "lon": 13.2842019
      },
      "bbox": null,
      "source": "osm",
      "tags": {
        "name": "Invalidensiedlung",
        "place": "neighbourhood"
      }
    },
    {
      "id": "node/10637130773",
      "name": "Heimatviertel",
      "name_local": "Heimatviertel",
      "slug": "heimatviertel",
      "center": {
        "lat": 52.4827165,
        "lon": 13.5240009
      },
      "bbox": null,
      "source": "osm",
      "tags": {
        "name": "Heimatviertel",
        "place": "neighbourhood"
      }
    },
    {
      "id": "node/10746279387",
      "name": "Alte Schäferei",
      "name_local": "Alte Schäferei",
      "slug": "alte_sch_ferei",
      "center": {
        "lat": 52.6199608,
        "lon": 13.4273281
      },
      "bbox": null,
      "source": "osm",
      "tags": {
        "name": "Alte Schäferei",
        "place": "locality"
      }
    },
    {
      "id": "node/10753377757",
      "name": "Parkstadt Karlshorst",
      "name_local": "Parkstadt Karlshorst",
      "slug": "parkstadt_karlshorst",
      "center": {
        "lat": 52.482156,
        "lon": 13.5095258
      },
      "bbox": null,
      "source": "osm",
      "tags": {
        "name": "Parkstadt Karlshorst",
        "place": "neighbourhood",
        "wikidata": "Q116741431",
        "wikipedia": "de:Parkstadt Karlshorst"
      }
    },
    {
      "id": "node/10783728185",
      "name": "Bismarckviertel",
      "name_local": "Bismarckviertel",
      "slug": "bismarckviertel",
      "center": {
        "lat": 52.4624215,
        "lon": 13.3383753
      },
      "bbox": null,
      "source": "osm",
      "tags": {
        "name": "Bismarckviertel",
        "place": "quarter",
        "wikidata": "Q866589",
        "wikipedia": "de:Bismarckviertel Steglitz"
      }
    },
    {
      "id": "node/10941256361",
      "name": "Pölnitzwiesen",
      "name_local": "Pölnitzwiesen",
      "slug": "p_lnitzwiesen",
      "center": {
        "lat": 52.6446632,
        "lon": 13.5115255
      },
      "bbox": null,
      "source": "osm",
      "tags": {
        "name": "Pölnitzwiesen",
        "place": "locality"
      }
    },
    {
      "id": "node/11033146684",
      "name": "Europacity",
      "name_local": "Europacity",
      "slug": "europacity",
      "center": {
        "lat": 52.5288986,
        "lon": 13.3691898
      },
      "bbox": null,
      "source": "osm",
      "tags": {
        "name": "Europacity",
        "place": "quarter",
        "wikidata": "Q1375310",
        "wikimedia_commons": "Category:Europacity",
        "wikipedia": "de:Europacity"
      }
    },
    {
      "id": "node/11049931487",
      "name": "Schwarze Berge",
      "name_local": "Schwarze Berge",
      "slug": "schwarze_berge",
      "center": {
        "lat": 52.3758699,
        "lon": 13.6703618
      },
      "bbox": null,
      "source": "osm",
      "tags": {
        "name": "Schwarze Berge",
        "place": "locality"
      }
    },
    {
      "id": "node/11054629556",
      "name": "Buch III Nord",
      "name_local": "Buch III Nord",
      "slug": "buch_iii_nord",
      "center": {
        "lat": 52.6347458,
        "lon": 13.5011684
      },
      "bbox": null,
      "source": "osm",
      "tags": {
        "name": "Buch III Nord",
        "place": "neighbourhood"
      }
    },
    {
      "id": "node/11054629557",
      "name": "Buch II",
      "name_local": "Buch II",
      "slug": "buch_ii",
      "center": {
        "lat": 52.6298322,
        "lon": 13.5004605
      },
      "bbox": null,
      "source": "osm",
      "tags": {
        "name": "Buch II",
        "place": "neighbourhood"
      }
    },
    {
      "id": "node/11054629558",
      "name": "Buch I",
      "name_local": "Buch I",
      "slug": "buch_i",
      "center": {
        "lat": 52.625373,
        "lon": 13.497364
      },
      "bbox": null,
      "source": "osm",
      "tags": {
        "name": "Buch I",
        "place": "neighbourhood"
      }
    },
    {
      "id": "node/11054629559",
      "name": "Buch IV",
      "name_local": "Buch IV",
      "slug": "buch_iv",
      "center": {
        "lat": 52.6274937,
        "lon": 13.4926106
      },
      "bbox": null,
      "source": "osm",
      "tags": {
        "name": "Buch IV",
        "place": "neighbourhood"
      }
    },
    {
      "id": "node/11054629560",
      "name": "Buch III Süd",
      "name_local": "Buch III Süd",
      "slug": "buch_iii_s_d",
      "center": {
        "lat": 52.6322243,
        "lon": 13.4950798
      },
      "bbox": null,
      "source": "osm",
      "tags": {
        "name": "Buch III Süd",
        "place": "neighbourhood"
      }
    },
    {
      "id": "node/11116741996",
      "name": "Nordbahnkiez",
      "name_local": "Nordbahnkiez",
      "slug": "nordbahnkiez",
      "center": {
        "lat": 52.5647667,
        "lon": 13.389963
      },
      "bbox": null,
      "source": "osm",
      "tags": {
        "alt_name": "Nordbahnviertel",
        "name": "Nordbahnkiez",
        "name:etymology:wikidata": "Q456533",
        "old_name": "Pankow-West",
        "old_name:etymology:wikidata": "Q4707648",
        "place": "neighbourhood"
      }
    },
    {
      "id": "node/11139437503",
      "name": "Tiroler Viertel",
      "name_local": "Tiroler Viertel",
      "slug": "tiroler_viertel",
      "center": {
        "lat": 52.5602654,
        "lon": 13.4071237
      },
      "bbox": null,
      "source": "osm",
      "tags": {
        "name": "Tiroler Viertel",
        "name:etymology:wikidata": "Q153809",
        "place": "quarter",
        "wikidata": "Q2436303",
        "wikipedia": "de:Tiroler Viertel"
      }
    },
    {
      "id": "node/11139487334",
      "name": "Mühlenviertel",
      "name_local": "Mühlenviertel",
      "slug": "m_hlenviertel",
      "center": {
        "lat": 52.5422576,
        "lon": 13.447215
      },
      "bbox": null,
      "source": "osm",
      "tags": {
        "alt_name": "Wohnkomplex Greifswalder Straße",
        "loc_name": "Mühlenkiez",
        "name": "Mühlenviertel",
        "place": "quarter"
      }
    },
    {
      "id": "node/11148286030",
      "name": "Getreideviertel",
      "name_local": "Getreideviertel",
      "slug": "getreideviertel",
      "center": {
        "lat": 52.5197454,
        "lon": 13.5598507
      },
      "bbox": null,
      "source": "osm",
      "tags": {
        "alt_name": "Getreidesiedlung",
        "description": "Das Getreideviertel verläuft entlang der Kornmandelweg bis Oberfeldstraße, dann bis S-Bahnhof Biesdorf, dann bis Blumberger Damm, dann entlang Blumberger Damm bis Kornmandelweg.",
        "name": "Getreideviertel",
        "place": "neighbourhood"
      }
    },
    {
      "id": "node/11205413529",
      "name": "Försterwall",
      "name_local": "Försterwall",
      "slug": "f_rsterwall",
      "center": {
        "lat": 52.4479761,
        "lon": 13.7490799
      },
      "bbox": null,
      "source": "osm",
      "tags": {
        "ele": "70",
        "name": "Försterwall",
        "place": "locality"
      }
    },
    {
      "id": "node/11250376268",
      "name": "Havelufer-Quartier",
      "name_local": "Havelufer-Quartier",
      "slug": "havelufer_quartier",
      "center": {
        "lat": 52.5571239,
        "lon": 13.2104409
      },
      "bbox": null,
      "source": "osm",
      "tags": {
        "alt_name": "Carossa-Quartier",
        "name": "Havelufer-Quartier",
        "place": "neighbourhood"
      }
    },
    {
      "id": "node/11271416889",
      "name": "Gartenstadt Atlantic",
      "name_local": "Gartenstadt Atlantic",
      "slug": "gartenstadt_atlantic",
      "center": {
        "lat": 52.5509336,
        "lon": 13.3884134
      },
      "bbox": null,
      "source": "osm",
      "tags": {
        "name": "Gartenstadt Atlantic",
        "place": "neighbourhood"
      }
    },
    {
      "id": "node/11271428129",
      "name": "Bremer Höhe",
      "name_local": "Bremer Höhe",
      "slug": "bremer_h_he",
      "center": {
        "lat": 52.5446141,
        "lon": 13.4143726
      },
      "bbox": null,
      "source": "osm",
      "tags": {
        "name": "Bremer Höhe",
        "place": "neighbourhood",
        "wikidata": "Q907643",
        "wikipedia": "de:Bremer Höhe"
      }
    },
    {
      "id": "node/11274577235",
      "name": "Neue Kampe",
      "name_local": "Neue Kampe",
      "slug": "neue_kampe",
      "center": {
        "lat": 52.4472811,
        "lon": 13.7378735
      },
      "bbox": null,
      "source": "osm",
      "tags": {
        "name": "Neue Kampe",
        "place": "locality"
      }
    },
    {
      "id": "node/11274577236",
      "name": "Neues Gehege",
      "name_local": "Neues Gehege",
      "slug": "neues_gehege",
      "center": {
        "lat": 52.4491027,
        "lon": 13.7326244
      },
      "bbox": null,
      "source": "osm",
      "tags": {
        "name": "Neues Gehege",
        "place": "locality"
      }
    },
    {
      "id": "node/11274577237",
      "name": "Brand",
      "name_local": "Brand",
      "slug": "brand",
      "center": {
        "lat": 52.4464842,
        "lon": 13.7339507
      },
      "bbox": null,
      "source": "osm",
      "tags": {
        "name": "Brand",
        "place": "locality"
      }
    },
    {
      "id": "node/11274577238",
      "name": "Grüner Grund",
      "name_local": "Grüner Grund",
      "slug": "gr_ner_grund",
      "center": {
        "lat": 52.4433986,
        "lon": 13.7385086
      },
      "bbox": null,
      "source": "osm",
      "tags": {
        "name": "Grüner Grund",
        "place": "locality"
      }
    },
    {
      "id": "node/11278915489",
      "name": "Komponistenviertel",
      "name_local": "Komponistenviertel",
      "slug": "komponistenviertel",
      "center": {
        "lat": 52.4385662,
        "lon": 13.3340991
      },
      "bbox": null,
      "source": "osm",
      "tags": {
        "alt_name": "Rosenthalsches Viertel",
        "name": "Komponistenviertel",
        "place": "quarter"
      }
    },
    {
      "id": "node/11331294668",
      "name": "Maxgärten",
      "name_local": "Maxgärten",
      "slug": "maxg_rten",
      "center": {
        "lat": 52.549632,
        "lon": 13.3665641
      },
      "bbox": null,
      "source": "osm",
      "tags": {
        "name": "Maxgärten",
        "name:ja": "マックスゲルテン",
        "place": "neighbourhood"
      }
    },
    {
      "id": "node/11388375591",
      "name": "Appelhorn",
      "name_local": "Appelhorn",
      "slug": "appelhorn",
      "center": {
        "lat": 52.4258671,
        "lon": 13.109555
      },
      "bbox": null,
      "source": "osm",
      "tags": {
        "name": "Appelhorn",
        "place": "locality"
      }
    },
    {
      "id": "node/11766478993",
      "name": "Neu-Buckow",
      "name_local": "Neu-Buckow",
      "slug": "neu_buckow",
      "center": {
        "lat": 52.4209807,
        "lon": 13.4107536
      },
      "bbox": null,
      "source": "osm",
      "tags": {
        "name": "Neu-Buckow",
        "place": "neighbourhood"
      }
    },
    {
      "id": "node/11766491555",
      "name": "Buckow-Nord",
      "name_local": "Buckow-Nord",
      "slug": "buckow_nord",
      "center": {
        "lat": 52.4345646,
        "lon": 13.467525
      },
      "bbox": null,
      "source": "osm",
      "tags": {
        "name": "Buckow-Nord",
        "official_name": "official_name",
        "place": "neighbourhood"
      }
    },
    {
      "id": "node/11766600159",
      "name": "Berlin-Ahrensfelde",
      "name_local": "Berlin-Ahrensfelde",
      "slug": "berlin_ahrensfelde",
      "center": {
        "lat": 52.5690808,
        "lon": 13.5671866
      },
      "bbox": null,
      "source": "osm",
      "tags": {
        "alt_name": "Marzahn-Nordwest",
        "name": "Berlin-Ahrensfelde",
        "official_name": "Marzahn-Nord",
        "place": "quarter"
      }
    },
    {
      "id": "node/11919533830",
      "name": "Alte Saubucht",
      "name_local": "Alte Saubucht",
      "slug": "alte_saubucht",
      "center": {
        "lat": 52.4767092,
        "lon": 13.213293
      },
      "bbox": null,
      "source": "osm",
      "tags": {
        "name": "Alte Saubucht",
        "place": "locality"
      }
    },
    {
      "id": "node/11919533831",
      "name": "Dachsgrund",
      "name_local": "Dachsgrund",
      "slug": "dachsgrund",
      "center": {
        "lat": 52.4820622,
        "lon": 13.2007605
      },
      "bbox": null,
      "source": "osm",
      "tags": {
        "name": "Dachsgrund",
        "place": "locality"
      }
    },
    {
      "id": "node/11919533832",
      "name": "Elsgrund",
      "name_local": "Elsgrund",
      "slug": "elsgrund",
      "center": {
        "lat": 52.4905574,
        "lon": 13.1946427
      },
      "bbox": null,
      "source": "osm",
      "tags": {
        "name": "Elsgrund",
        "place": "locality"
      }
    },
    {
      "id": "node/11919533833",
      "name": "Eichkamp",
      "name_local": "Eichkamp",
      "slug": "eichkamp",
      "center": {
        "lat": 52.4930475,
        "lon": 13.253776
      },
      "bbox": null,
      "source": "osm",
      "tags": {
        "name": "Eichkamp",
        "place": "locality"
      }
    },
    {
      "id": "node/11939970113",
      "name": "Tabaksgarten",
      "name_local": "Tabaksgarten",
      "slug": "tabaksgarten",
      "center": {
        "lat": 52.437765,
        "lon": 13.6912742
      },
      "bbox": null,
      "source": "osm",
      "tags": {
        "name": "Tabaksgarten",
        "place": "locality"
      }
    },
    {
      "id": "node/11939970114",
      "name": "Winkelfleck",
      "name_local": "Winkelfleck",
      "slug": "winkelfleck",
      "center": {
        "lat": 52.4361937,
        "lon": 13.6912473
      },
      "bbox": null,
      "source": "osm",
      "tags": {
        "name": "Winkelfleck",
        "place": "locality"
      }
    },